{"data":[{"dataversion":"draft1","created":1463529389,"id":"0084f47d-cdcf-427a-96e5-f27a54d7e303","USID":"","name":"成都天康医院","city":"成都","province":"四川","address":"岷江街16号","type":"","location":{"lng":"103.966526","lat":"30.752825"},"principal":"","shareholder":[],"url":[],"phone":[],"baiduad":{},"news":{},"putian":{},"comments":{},"note":""},{"dataversion":"draft1","created":1463531060,"id":"027c432b-0f91-47ec-bf63-5fbe3474971f","USID":"","name":"重庆红十字会医院","city":"重庆","province":"重庆","address":"嘉陵一村1号","type":"","location":{"lng":"106.534193","lat":"29.56993"},"principal":"","shareholder":[],"url":[],"phone":[],"baiduad":{},"news":{},"putian":{},"comments":{},"note":""},{"dataversion":"draft1","created":1463529389,"id":"04612b03-4121-49e1-a647-56a2f201aeb1","USID":"","name":"武警四川总队医院(部分科室)","city":"成都","province":"四川","address":"浆洗街5号","type":"","location":{"lng":"104.056839","lat":"30.642468"},"principal":"","shareholder":[],"url":[],"phone":[],"baiduad":{},"news":{},"putian":{},"comments":{},"note":""},{"dataversion":"draft1","created":1463450150,"updated":1463450150,"id":"05cbb48e-2932-44ae-9aee-4d486bfe85ce","USID":"91310113781859546H","name":"上海英港泌尿外科医院","city":"上海","province":"上海","address":"上海市宝山区淞滨路130号","type":"民营医院","location":{"lat":"31.3736824","lng":"121.4971624"},"principal":"黄元聪","shareholder":["黄元聪","许乌烘","王晨飞"],"url":["http://www.shyg91.com/index.html"],"phone":["021-56846229"],"baiduad":{},"news":{"evidence":[{"url":"http://tech.qq.com/a/20160501/017681.htm","title":"腾讯科技","snapshot":"http://webcache.googleusercontent.com/search?ion=1&sourceid=chrome-psyapi2&q=cache%3A%2F%2Ftech.qq.com%2Fa%2F20160501%2F017681.htm&oq=cache%3A%2F%2Ftech.qq.com%2Fa%2F20160501%2F017681.htm&rlz=1C5CHFA_enUS659US659&ie=UTF-8&aqs=chrome..69i57j69i58j69i60l3.7055j0j7&bav=on.2,or.r_cp.&bvm=bv.122129774,d.cGc&biw=1438&bih=711&dpr=2&ech=1&psi=-m86V5rwBI2ujwPSgYS4Bg.1463447549083.3&ei=-m86V5rwBI2ujwPSgYS4Bg&emsg=NCSR&noj=1","dateline":"GithubOpenPowerProgrammer, OpenPower, 2016-05-17T01:51:55.511Z - "}]},"putian":{"confirm":"Yes","evidence":[{"url":"https://zh.wikipedia.org/wiki/%E8%8E%86%E7%94%B0%E7%B3%BB","title":"维基百科","snapshot":"https://zh.wikipedia.org/wiki/%E8%8E%86%E7%94%B0%E7%B3%BB","dateline":"GithubOpenPowerProgrammer, OpenPower, 2016-05-17T01:51:27.760Z - "}]},"comments":{"evidence":[{"url":"http://www.dianping.com/shop/2389576/review_more_1star","title":"大众点评","snapshot":"http://www.dianping.com/shop/2389576/review_more_1star","dateline":"GithubOpenPowerProgrammer, OpenPower, 2016-05-17T01:54:46.463Z - "},{"url":"http://www.120lu.com/show/145.html","title":"上海英港泌尿外科医院怎么样？","snapshot":"http://www.120lu.com/show/145.html","dateline":"GithubOpenPowerProgrammer, OpenPower, 2016-05-17T01:54:46.463Z - "}]},"note":""},{"dataversion":"draft1","created":1463618411,"id":"06bfcece-3a0a-4db9-a694-aaea3b21469a","USID":"","name":"江门福康医院","city":"江门","province":"广东","address":"建设路49号江门市老汽车总站往广州方向500米","type":"","location":{"lng":"113.081662","lat":"22.588535"},"principal":"","shareholder":[],"url":[],"phone":[],"baiduad":{},"news":{},"putian":{},"comments":{},"note":""},{"dataversion":"draft1","created":1463390868,"updated":1463390868,"id":"087db371-2bf4-4f3f-87ec-f3e6e20e7d2d","USID":"91310118765964995D","name":"上海同德医院","city":"上海","province":"上海","address":"上海市青浦区盈港路1006号","type":"民营医院","location":{"lat":"31.1612303","lng":"121.1056037"},"principal":"詹彼德","shareholder":["祝朋军","詹彼德"],"url":["http://www.shtdyy.com/"],"phone":["021-69229050"],"baiduad":{},"news":{"evidence":[{"url":"http://tech.qq.com/a/20160501/017681.htm","title":"腾讯科技","snapshot":"http://webcache.googleusercontent.com/search?ion=1&sourceid=chrome-psyapi2&q=cache%3A%2F%2Ftech.qq.com%2Fa%2F20160501%2F017681.htm&oq=cache%3A%2F%2Ftech.qq.com%2Fa%2F20160501%2F017681.htm&rlz=1C5CHFA_enUS659US659&ie=UTF-8&aqs=chrome..69i57j69i58j69i60l3.7735j0j7&bav=on.2,or.r_cp.&bvm=bv.122129774,d.cGc&biw=1438&bih=711&dpr=2&ech=1&psi=qpE5V-LoKczgjwPzjbCoDw.1463390635458.3&ei=qpE5V-LoKczgjwPzjbCoDw&emsg=NCSR&noj=1","dateline":"GithubOpenPowerProgrammer, OpenPower, 2016-05-16T09:24:08.892Z - "}]},"putian":{"confirm":"Yes","evidence":[{"url":"https://zh.wikipedia.org/wiki/%E8%8E%86%E7%94%B0%E7%B3%BB","title":"维基百科","snapshot":"https://zh.wikipedia.org/wiki/%E8%8E%86%E7%94%B0%E7%B3%BB","dateline":"GithubOpenPowerProgrammer, OpenPower, 2016-05-16T09:23:18.035Z - "}]},"comments":{"evidence":[{"url":"","title":"","snapshot":"","dateline":""}]},"note":""},{"dataversion":"draft1","created":1463618411,"id":"09bbc68a-245c-41e0-ba9b-1be24982116b","USID":"","name":"东莞乌沙医院","city":"东莞","province":"广东","address":"长安镇乌沙社区李屋大道乌沙派出所旁","type":"","location":{"lng":"113.782304","lat":"22.794032"},"principal":"","shareholder":[],"url":[],"phone":[],"baiduad":{},"news":{},"putian":{},"comments":{},"note":""},{"dataversion":"draft1","created":1463618411,"id":"0a3bc5af-6e81-4bd1-aa1d-4899d018691e","USID":"","name":"深圳美莱美容医院","city":"深圳","province":"广东","address":"深南中路2044号(兴华宾馆西行200米)","type":"","location":{"lng":"114.090490","lat":"22.541225"},"principal":"","shareholder":[],"url":[],"phone":[],"baiduad":{},"news":{},"putian":{},"comments":{},"note":""},{"dataversion":"draft1","created":1463618411,"id":"0a7d84af-d345-4e33-9fd0-52cc64afadc4","USID":"","name":"广州健安医院","city":"广州","province":"广东","address":"广深大道中36-44号","type":"","location":{"lng":"113.618705","lat":"23.121641"},"principal":"","shareholder":[],"url":[],"phone":[],"baiduad":{},"news":{},"putian":{},"comments":{},"note":""},{"dataversion":"draft1","created":1463618411,"id":"0ad70294-dadd-4ef1-a1ac-8118c3e8e912","USID":"","name":"顺德庄头医院","city":"佛山","province":"广东","address":"陈村镇庄头管理区太平路49号","type":"","location":{"lng":"113.197656","lat":"22.989475"},"principal":"","shareholder":[],"url":[],"phone":[],"baiduad":{},"news":{},"putian":{},"comments":{},"note":""},{"dataversion":"draft1","created":1463618411,"id":"0c392aae-541b-45bd-9afc-d5b431688983","USID":"","name":"顺德新世纪泌尿医院","city":"佛山","province":"广东","address":"大良南国西路黄岗路口","type":"","location":{"lng":"113.238929","lat":"22.813158"},"principal":"","shareholder":[],"url":[],"phone":[],"baiduad":{},"news":{},"putian":{},"comments":{},"note":""},{"dataversion":"draft1","created":1463529389,"id":"0f2d4e9f-7885-43c0-a133-56c1916f5200","USID":"","name":"成都仁品耳鼻喉专科医院","city":"成都","province":"四川","address":"青华路51号附12号","type":"","location":{"lng":"104.023819","lat":"30.662117"},"principal":"","shareholder":[],"url":[],"phone":[],"baiduad":{},"news":{},"putian":{},"comments":{},"note":""},{"dataversion":"draft1","created":1463529389,"id":"1099e439-dfab-4117-b25a-a02cf386a570","USID":"","name":"四川中医药高等专科学校附属医院","city":"成都","province":"四川","address":"中环路双荆路路段282号附近","type":"","location":{"lng":"104.099769","lat":"30.706454"},"principal":"","shareholder":[],"url":[],"phone":[],"baiduad":{},"news":{},"putian":{},"comments":{},"note":""},{"dataversion":"draft1","created":1463576983,"id":"13ff466d-165f-4405-827c-d5ab7af3dab8","USID":"","name":"北京京北医院","city":"北京","province":"北京","address":"龙岗路6号(清河桥东)","type":"","location":{"lng":"116.350116","lat":"40.029304"},"principal":"","shareholder":[],"url":[],"phone":[],"baiduad":{},"news":{},"putian":{},"comments":{},"note":""},{"dataversion":"draft1","created":1463618411,"id":"14e9420e-0f19-4f7b-a0ca-fbd38d1cf158","USID":"","name":"中山和平中医院","city":"中山","province":"广东","address":"小榄镇民安北路45号","type":"","location":{"lng":"113.238387","lat":"22.684296"},"principal":"","shareholder":[],"url":[],"phone":[],"baiduad":{},"news":{},"putian":{},"comments":{},"note":""},{"dataversion":"draft1","created":1463405033,"updated":1463405033,"id":"15db377b-6b56-426e-93f3-8b933166351c","USID":"510100000118019","name":"成都蜀都乳腺医院","city":"成都","province":"四川","address":"八宝街130号(新城市广场斜对面)","type":"民营医院","principal":"卓朝雄","shareholder":["成都博爱医疗投资管理有限公司","卓朝雄"],"url":[""],"phone":[""],"baiduad":{},"news":{"evidence":[{"url":"","title":"","snapshot":"","dateline":""}]},"putian":{},"comments":{"evidence":[{"url":"","title":"","snapshot":"","dateline":""}]},"note":"","location":{"lng":"104.058425","lat":"30.672058"}},{"dataversion":"draft1","created":1463575790,"updated":1463575790,"id":"160ac14d-1513-49f2-aa33-829360140c0e","USID":"911101050536245970","name":"北京美莱医疗美容医院","city":"北京","province":"北京","address":"吉市口东路与朝阳门外大街交叉口东北50米","type":"民营医院","principal":"陈文良","shareholder":["许文新","上海美莱投资管理有限公司"],"url":["http://www.bjmylike.com/"],"phone":["010-56935111"],"baiduad":{},"news":{"evidence":[{"url":"","title":"","snapshot":"","dateline":""}]},"putian":{"confirm":"Yes","evidence":[{"url":"https://www.sgs.gov.cn/notice/notice/view?uuid=9DfasM8QpxkUh5I_FnqttCFdIkDTyER3&tab=01","title":"上海美莱投资管理有限公司","snapshot":"http://i.imgur.com/6BuDEKX.png","dateline":""},{"url":"http://baike.baidu.com/view/1574371.htm","title":"陈金秀","snapshot":"http://i.imgur.com/O9oUk6E.png","dateline":""}]},"comments":{"evidence":[{"url":"","title":"","snapshot":"","dateline":""}]},"note":"","location":{"lng":"116.441153","lat":"39.924515"}},{"dataversion":"draft1","created":1463618411,"id":"1816adfe-426b-4ede-858c-2e2018c00087","USID":"","name":"东莞现代妇科医院","city":"东莞","province":"广东","address":"环城东路桑园路段圃园路口","type":"","location":{"lng":"113.800729","lat":"23.059268"},"principal":"","shareholder":[],"url":[],"phone":[],"baiduad":{},"news":{},"putian":{},"comments":{},"note":""},{"dataversion":"draft1","created":1463531060,"id":"181a8127-1865-45c7-9d14-82e14de8ac3e","USID":"","name":"重庆爱德华医院","city":"重庆","province":"重庆","address":"天陈路27号","type":"","location":{"lng":"106.459144","lat":"29.552898"},"principal":"","shareholder":[],"url":[],"phone":[],"baiduad":{},"news":{},"putian":{},"comments":{},"note":""},{"dataversion":"draft1","created":1463618411,"id":"1a66ed97-c0c2-4655-8597-f27e3b77cb38","USID":"","name":"深圳华南妇科医院","city":"深圳","province":"广东","address":"深汕公路224号(坪山电子城旁)","type":"","location":{"lng":"114.345218","lat":"22.693126"},"principal":"","shareholder":[],"url":[],"phone":[],"baiduad":{},"news":{},"putian":{},"comments":{},"note":""},{"dataversion":"draft1","created":1463618411,"id":"1c6258d4-b1e6-4975-a070-3eaaf3d711e8","USID":"","name":"广州女子医院","city":"广州","province":"广东","address":"陆居路42号","type":"","location":{"lng":"113.236774","lat":"23.099233"},"principal":"","shareholder":[],"url":[],"phone":[],"baiduad":{},"news":{},"putian":{},"comments":{},"note":""},{"dataversion":"draft1","created":1463404260,"updated":1463404260,"id":"1df76c6d-1d92-48f1-a0eb-b79e097d3185","USID":"915101057464333048","name":"成都永康医院","city":"成都","province":"四川","address":"莲花中路6号附82号(近牛市口)","type":"民营医院","principal":"李华","shareholder":["四川军大医学研究所","张莹","蒋天轩","李斌"],"url":[""],"phone":[""],"baiduad":{},"news":{"evidence":[{"url":"","title":"","snapshot":"","dateline":""}]},"putian":{},"comments":{"evidence":[{"url":"","title":"","snapshot":"","dateline":""}]},"note":"","location":{"lng":"104.099040","lat":"30.637379"}},{"dataversion":"draft1","created":1463618411,"id":"1e86cc47-5b29-4cf9-a5dd-286011e5574c","USID":"","name":"顺德阳新侠义道光康复医院","city":"佛山","province":"广东","address":null,"type":"","location":"","principal":"","shareholder":[],"url":[],"phone":[],"baiduad":{},"news":{},"putian":{},"comments":{},"note":""},{"dataversion":"draft1","created":1463529389,"id":"202142c4-956a-4e45-8099-de1298caca9f","USID":"","name":"成都养和堂综合门诊部","city":"成都","province":"四川","address":"蜀都大道十二桥路30号","type":"","location":{"lng":"104.043615","lat":"30.664374"},"principal":"","shareholder":[],"url":[],"phone":[],"baiduad":{},"news":{},"putian":{},"comments":{},"note":""},{"dataversion":"draft1","created":1463618411,"id":"2057f2df-6a94-4c07-9d9a-742fa24a6d92","USID":"","name":"佛山三水女子医院","city":"佛山","province":"广东","address":"西南广海大道西1号1-5层","type":"","location":{"lng":"112.886902","lat":"23.169216"},"principal":"","shareholder":[],"url":[],"phone":[],"baiduad":{},"news":{},"putian":{},"comments":{},"note":""},{"dataversion":"draft1","created":1463558623,"updated":1463558623,"id":"2148ce44-0bcc-43ad-bce4-736f91417075","USID":"913101127374939383","name":"上海虹桥医院","city":"上海","province":"上海","address":"上海市闵行区虹梅路2181号","type":"民营医院","location":{"lat":"31.175035","lng":"121.394991"},"principal":"陈国兴","shareholder":["陈国兴","陈国雄"],"url":["http://www.shhqyy.com/"],"phone":["021-64659999"],"baiduad":{},"news":{"evidence":[{"url":"http://tech.qq.com/a/20160501/017681.htm","title":"腾讯科技","snapshot":"http://webcache.googleusercontent.com/search?ion=1&sourceid=chrome-psyapi2&q=cache%3A%2F%2Ftech.qq.com%2Fa%2F20160501%2F017681.htm&oq=cache%3A%2F%2Ftech.qq.com%2Fa%2F20160501%2F017681.htm&rlz=1C5CHFA_enUS659US659&ie=UTF-8&aqs=chrome..69i57j69i58j69i60l3.6201j0j7&bav=on.2,or.r_cp.&bvm=bv.122448493,d.cGc&biw=1438&bih=715&dpr=2&ech=1&psi=1OQ7V-vcN47YjwPHgpSACA.1463542998782.3&ei=1OQ7V-vcN47YjwPHgpSACA&emsg=NCSR&noj=1","dateline":"GithubOpenPowerProgrammer, OpenPower, 2016-05-18T07:59:19.527Z - "},{"url":"http://news.163.com/16/0516/13/BN6MAPKD00014AED.html","title":"莆田系P2P合规性存疑","snapshot":"http://webcache.googleusercontent.com/search?q=cache%3A%2F%2Fnews.163.com%2F16%2F0516%2F13%2FBN6MAPKD00014AED.html&rlz=1C5CHFA_enUS659US659&oq=cache%3A%2F%2Fnews.163.com%2F16%2F0516%2F13%2FBN6MAPKD00014AED.html&aqs=chrome..69i57j69i58.2616j0j4&sourceid=chrome&ie=UTF-8","dateline":"GithubOpenPowerProgrammer, OpenPower, 2016-05-18T07:59:19.527Z - "},{"url":"http://ts.voc.com.cn/question/view/282920.html","title":"上海虹桥医院儿科医托内幕","snapshot":"投诉主题：上海虹桥医院儿科医托内幕","dateline":"GithubOpenPowerProgrammer, OpenPower, 2016-05-18T07:59:19.527Z - "},{"url":"http://biz.163.com/06/0216/06/2A2HPCLE00020QGP.html","title":"(2006年)沪3家医院涉嫌广告违规 皆表示暂停投放违规广告","snapshot":"http://biz.163.com/06/0216/06/2A2HPCLE00020QGP.html","dateline":"GithubOpenPowerProgrammer, OpenPower, 2016-05-18T07:59:19.527Z - "},{"url":"http://news.eastday.com/eastday/node545/node8418/userobject1ai103379.html","title":"针对上海虹桥医院违反医疗广告管理的行为","snapshot":"http://news.eastday.com/eastday/node545/node8418/userobject1ai103379.html","dateline":"GithubOpenPowerProgrammer, OpenPower, 2016-05-18T07:59:19.527Z - "}]},"putian":{"confirm":"Yes","evidence":[{"url":"https://zh.wikipedia.org/wiki/%E8%8E%86%E7%94%B0%E7%B3%BB","title":"维基百科","snapshot":"https://zh.wikipedia.org/wiki/%E8%8E%86%E7%94%B0%E7%B3%BB","dateline":"GithubOpenPowerProgrammer, OpenPower, 2016-05-18T07:51:22.737Z - "}]},"comments":{"evidence":[{"url":"http://blog.sina.com.cn/s/blog_12d8876400102w1ka.html","title":"上海虹桥医院儿科纯属骗子，希望更多的受害家长站出来，一起严惩他们","snapshot":"http://webcache.googleusercontent.com/search?q=cache%3A%2F%2Fblog.sina.com.cn%2Fs%2Fblog_12d8876400102w1ka.html&rlz=1C5CHFA_enUS659US659&oq=cache%3A%2F%2Fblog.sina.com.cn%2Fs%2Fblog_12d8876400102w1ka.html&aqs=chrome..69i57j69i58.3018j0j4&sourceid=chrome&ie=UTF-8","dateline":"GithubOpenPowerProgrammer, OpenPower, 2016-05-18T07:53:42.685Z - "},{"url":"http://bbs.tianya.cn/post-free-5431382-1.shtml","title":"天涯论坛","snapshot":"http://webcache.googleusercontent.com/search?q=cache%3A%2F%2Fbbs.tianya.cn%2Fpost-free-5431382-1.shtml&rlz=1C5CHFA_enUS659US659&oq=cache%3A%2F%2Fbbs.tianya.cn%2Fpost-free-5431382-1.shtml&aqs=chrome..69i57j69i58.3207j0j4&sourceid=chrome&ie=UTF-8","dateline":"GithubOpenPowerProgrammer, OpenPower, 2016-05-18T07:53:42.685Z - "},{"url":"http://health315.people.com.cn/index.php/Dis/dis/id/832","title":"人民网","snapshot":"http://webcache.googleusercontent.com/search?q=cache%3A%2F%2Fhealth315.people.com.cn%2Findex.php%2FDis%2Fdis%2Fid%2F832&rlz=1C5CHFA_enUS659US659&oq=cache%3A%2F%2Fhealth315.people.com.cn%2Findex.php%2FDis%2Fdis%2Fid%2F832&aqs=chrome..69i57j69i58.3176j0j4&sourceid=chrome&ie=UTF-8","dateline":"GithubOpenPowerProgrammer, OpenPower, 2016-05-18T07:53:42.685Z - "},{"url":"http://www.361yaya.com/thread-809-1-1.html","title":"上海虹桥医院与众多骗子的“体检”发财大计,虹桥医院知法犯法","snapshot":"http://webcache.googleusercontent.com/search?q=cache%3A%2F%2Fwww.361yaya.com%2Fthread-809-1-1.html&rlz=1C5CHFA_enUS659US659&oq=cache%3A%2F%2Fwww.361yaya.com%2Fthread-809-1-1.html&aqs=chrome..69i57j69i58.2238j0j4&sourceid=chrome&ie=UTF-8","dateline":"GithubOpenPowerProgrammer, OpenPower, 2016-05-18T07:53:42.685Z - "},{"url":"http://www.xjjhcs.com/a/yaowen/20160410/1827.html","title":"曝光上海虹桥医院的骗子赚黑心钱欺诈患者","snapshot":"http://webcache.googleusercontent.com/search?q=cache%3A%2F%2Fwww.xjjhcs.com%2Fa%2Fyaowen%2F20160410%2F1827.html&rlz=1C5CHFA_enUS659US659&oq=cache%3A%2F%2Fwww.xjjhcs.com%2Fa%2Fyaowen%2F20160410%2F1827.html&aqs=chrome..69i57j69i58.3502j0j4&sourceid=chrome&ie=UTF-8","dateline":"GithubOpenPowerProgrammer, OpenPower, 2016-05-18T07:53:42.685Z - "},{"url":"http://www.kezaga.com/shenghuo/jiating/28759.html","title":"网友投稿:去上海虹桥医院治口吃被骗近2万","snapshot":"http://webcache.googleusercontent.com/search?q=cache%3A%2F%2Fwww.kezaga.com%2Fshenghuo%2Fjiating%2F28759.html&rlz=1C5CHFA_enUS659US659&oq=cache%3A%2F%2Fwww.kezaga.com%2Fshenghuo%2Fjiating%2F28759.html&aqs=chrome..69i57j69i58.2198j0j4&sourceid=chrome&ie=UTF-8","dateline":"GithubOpenPowerProgrammer, OpenPower, 2016-05-18T07:53:42.685Z - "},{"url":"http://classad.beelink.cn/html/201505/content_37127.htm","title":"上海虹桥医院是可恶的黑心医院，消费者要留心","snapshot":"http://classad.beelink.cn/html/201505/content_37127.htm","dateline":"GithubOpenPowerProgrammer, OpenPower, 2016-05-18T07:53:42.685Z - "}]},"note":""},{"dataversion":"draft1","created":1462858904,"updated":1462858904,"id":"21aa8bdd-fcd4-46c3-9f38-007a1b3bff2c","USID":"91310114754344969M","name":"上海中骏医学科学研究所","city":"上海","province":"上海","address":"上海市徐汇区虹漕路461号","type":"民营医院","location":{"lat":"31.178641","lng":"121.407248"},"principal":"郑洪","shareholder":[""],"url":[""],"phone":[""],"baiduad":{},"news":{"evidence":[{"url":"","title":"","snapshot":"","dateline":""}]},"putian":{"confirm":"Yes","evidence":[{"url":"https://zh.wikipedia.org/wiki/%E8%8E%86%E7%94%B0%E7%B3%BB","title":"维基百科莆田系","snapshot":"http://webcache.googleusercontent.com/search?sourceid=chrome-psyapi2&ion=1&espv=2&ie=UTF-8&q=cache%3A%2F%2Fzh.wikipedia.org%2Fwiki%2F%E8%8E%86%E7%94%B0%E7%B3%BB&oq=cache%3A%2F%2Fzh.wikipedia.org%2Fwiki%2F%E8%8E%86%E7%94%B0%E7%B3%BB&rlz=1C5CHFA_enUS659US659&aqs=chrome..69i57j69i58.3588j0j9","dateline":"GithubOpenPowerProgrammer, OpenPower, 2016-05-10T05:34:09.794Z - "}]},"comments":{"evidence":[{"url":"","title":"","snapshot":"","dateline":""}]},"note":""},{"dataversion":"draft1","created":1463575326,"updated":1463575326,"id":"21cb54c4-90b4-48fb-b0f0-ab0e07ececd8","USID":"","name":"武警北京市总队第二医院","city":"北京","province":"北京","address":"月坛北街丁3号","type":"外包科室","principal":"","shareholder":[""],"url":[""],"phone":[""],"baiduad":{},"news":{"evidence":[{"url":"","title":"","snapshot":"","dateline":""}]},"putian":{"confirm":"Yes","evidence":[{"url":"http://tech.qq.com/a/20160501/012212.htm","title":"一个死在百度和部队医院之手的年轻人","snapshot":"http://i.imgur.com/JdPLtYG.png","dateline":""}]},"comments":{"evidence":[{"url":"","title":"","snapshot":"","dateline":""}]},"note":"","location":{"lng":"116.351631","lat":"39.919332"}},{"dataversion":"draft1","created":1463531060,"id":"23592ded-b7a6-4176-a318-231a477f001b","USID":"","name":"重庆安琪儿妇产医院","city":"重庆","province":"重庆","address":"嘉鸿大道308号(大庆村立交旁)","type":"","location":{"lng":"106.498034","lat":"29.575503"},"principal":"","shareholder":[],"url":[],"phone":[],"baiduad":{},"news":{},"putian":{},"comments":{},"note":""},{"dataversion":"draft1","created":1463576983,"id":"2420ffeb-4bdc-426c-9da4-742ff50431e0","USID":"","name":"北京健宫医院","city":"北京","province":"北京","address":"菜市口南大街儒福里6号","type":"","location":{"lng":"116.375751","lat":"39.880918"},"principal":"","shareholder":[],"url":[],"phone":[],"baiduad":{},"news":{},"putian":{},"comments":{},"note":""},{"dataversion":"draft1","created":1463529389,"id":"24adf3f7-bf20-4126-a707-7490d5e854d4","USID":"","name":"成都维多利亚女子医院","city":"成都","province":"四川","address":"一环路南一段9号凯悦新城b1幸福角餐厅(维多利亚女子医院旁)","type":"","location":{"lng":"104.072240","lat":"30.633780"},"principal":"","shareholder":[],"url":[],"phone":[],"baiduad":{},"news":{},"putian":{},"comments":{},"note":""},{"dataversion":"draft1","created":1463618411,"id":"29394b3b-f54e-45ab-8e89-d3f3658e3a28","USID":"","name":"中山现代妇科医院","city":"中山","province":"广东","address":"东区街道中山四路12号","type":"","location":{"lng":"113.394716","lat":"22.511887"},"principal":"","shareholder":[],"url":[],"phone":[],"baiduad":{},"news":{},"putian":{},"comments":{},"note":""},{"dataversion":"draft1","created":1463618411,"id":"2961b723-eef2-4b00-ae65-fadff30d8cc7","USID":"","name":"深圳罗岗医院","city":"深圳","province":"广东","address":"罗岗路76号","type":"","location":{"lng":"114.125982","lat":"22.595937"},"principal":"","shareholder":[],"url":[],"phone":[],"baiduad":{},"news":{},"putian":{},"comments":{},"note":""},{"dataversion":"draft1","created":1463618411,"id":"2b7fd1dd-96b8-407d-ac1a-15ce66044c35","USID":"","name":"广州市江南医院","city":"广州","province":"广东","address":"南敦和路3号","type":"","location":{"lng":"113.312558","lat":"23.091542"},"principal":"","shareholder":[],"url":[],"phone":[],"baiduad":{},"news":{},"putian":{},"comments":{},"note":""},{"dataversion":"draft1","created":1463618411,"id":"2f83d20f-d586-4723-98e5-d4725be6ae6b","USID":"","name":"珠海惠爱医院","city":"珠海","province":"广东","address":"拱北联安路22号水湾酒吧街旁惠爱医院","type":"","location":{"lng":"113.560592","lat":"22.226505"},"principal":"","shareholder":[],"url":[],"phone":[],"baiduad":{},"news":{},"putian":{},"comments":{},"note":""},{"dataversion":"draft1","created":1463529389,"id":"30c12376-fd65-4555-9924-65af9daa7d27","USID":"","name":"成都肛泰肛肠医院","city":"成都","province":"四川","address":"一环路北二段1号","type":"","location":{"lng":"104.061107","lat":"30.686222"},"principal":"","shareholder":[],"url":[],"phone":[],"baiduad":{},"news":{},"putian":{},"comments":{},"note":""},{"dataversion":"draft1","created":1463529389,"id":"30e810ab-0e77-40af-b4a7-684b69d60e15","USID":"","name":"成都送子鸟不孕不育医院","city":"成都","province":"四川","address":"人民中路二段43号(远东百货对面)","type":"","location":{"lng":"104.066420","lat":"30.669948"},"principal":"","shareholder":[],"url":[],"phone":[],"baiduad":{},"news":{},"putian":{},"comments":{},"note":""},{"dataversion":"draft1","created":1463576983,"id":"340f1a36-7030-43fb-b669-8b227a4d9475","USID":"","name":"北京众安康中医骨科","city":"北京","province":"北京","address":"朝阳北路红领巾桥往东100米(红领巾公园南门对面北京众安康中医骨科医院院内)","type":"","location":{"lng":"116.494995","lat":"39.922075"},"principal":"","shareholder":[],"url":[],"phone":[],"baiduad":{},"news":{},"putian":{},"comments":{},"note":""},{"dataversion":"draft1","created":1463041609,"updated":1463041609,"id":"35764a94-53c6-47bc-9533-fde48eea2bc8","USID":"","name":"上海江东泌尿外科医院","city":"上海","province":"上海","address":"中国上海市浦东新区金桥路300号","type":"民营医院","location":{"lat":"31.264799","lng":"121.57117"},"principal":"","shareholder":[""],"url":["http://www.dong120.com/"],"phone":["021-50349666"],"baiduad":{},"news":{"evidence":[{"url":"http://tech.qq.com/a/20160501/017681.htm","title":"腾讯科技","snapshot":"http://webcache.googleusercontent.com/search?q=cache%3A%2F%2Ftech.qq.com%2Fa%2F20160501%2F017681.htm&rlz=1C5CHFA_enUS659US659&oq=cache%3A%2F%2Ftech.qq.com%2Fa%2F20160501%2F017681.htm&aqs=chrome..69i57j69i58j69i60l3.2910j0j4&sourceid=chrome&ie=UTF-8","dateline":"GithubOpenPowerProgrammer, OpenPower, 2016-05-12T08:19:45.839Z - "},{"url":"http://www.5h.com/yl/11070.html","title":"5号网","snapshot":"http://www.5h.com/yl/11070.html","dateline":"GithubOpenPowerProgrammer, OpenPower, 2016-05-12T08:19:45.839Z - "}]},"putian":{},"comments":{"evidence":[{"url":"http://m.qiangjunshi.com/29/18015.html","title":"曝光上海江东医院是骗子 黑心医院 让更多人知道这家 黑心医院","snapshot":"http://webcache.googleusercontent.com/search?q=cache%3A%2F%2Fm.qiangjunshi.com%2F29%2F18015.html&rlz=1C5CHFA_enUS659US659&oq=cache%3A%2F%2Fm.qiangjunshi.com%2F29%2F18015.html&aqs=chrome..69i57j69i58.2513j0j4&sourceid=chrome&ie=UTF-8","dateline":"GithubOpenPowerProgrammer, OpenPower, 2016-05-12T08:26:46.872Z - "}]},"note":""},{"dataversion":"draft1","created":1463618411,"id":"36f09926-026d-4bc1-a05d-fe59bcd8d332","USID":"","name":"深圳博爱医院","city":"深圳","province":"广东","address":"红岭中路2056号","type":"","location":{"lng":"114.104969","lat":"22.552201"},"principal":"","shareholder":[],"url":[],"phone":[],"baiduad":{},"news":{},"putian":{},"comments":{},"note":""},{"dataversion":"draft1","created":1463576983,"id":"38294590-a7e5-4e90-bc75-0e13e84a180c","USID":"","name":"北京建国医院","city":"北京","province":"北京","address":"西大望路2号","type":"","location":{"lng":"116.478277","lat":"39.914616"},"principal":"","shareholder":[],"url":[],"phone":[],"baiduad":{},"news":{},"putian":{},"comments":{},"note":""},{"dataversion":"draft1","created":1463576983,"id":"3afa4bd8-4574-4bb6-a2f2-88654da1744a","USID":"","name":"北京俪人女子医院","city":"北京","province":"北京","address":"东四北大街337-1号","type":"","location":{"lng":"116.417049","lat":"39.929009"},"principal":"","shareholder":[],"url":[],"phone":[],"baiduad":{},"news":{},"putian":{},"comments":{},"note":""},{"dataversion":"draft1","created":1463402154,"updated":1463402154,"id":"3c45b8f6-9575-40ff-88eb-5737ab7641f8","USID":"510107000172400","name":"成都长征医院","city":"成都","province":"四川","address":"西安路四段122-134号","type":"民营医院","principal":"林志平","shareholder":["林寿庸","林志平"],"url":[""],"phone":["028-85583777"],"baiduad":{},"news":{"evidence":[{"url":"http://mt.sohu.com/20160505/n447883098.shtml","title":"四川莆田系医院最全名单大曝光，仅成都就有38家！你还敢去吗？","snapshot":"http://i.imgur.com/bYr5Yzn.png","dateline":""}]},"putian":{"confirm":"Yes","evidence":[{"url":"http://mt.sohu.com/20160505/n447883098.shtml","title":"四川莆田系医院最全名单大曝光，仅成都就有38家！你还敢去吗？","snapshot":"http://i.imgur.com/bYr5Yzn.png","dateline":""}]},"comments":{"evidence":[{"url":"","title":"","snapshot":"","dateline":""}]},"note":"","location":{"lng":"103.909108","lat":"30.576419"}},{"dataversion":"draft1","created":1463529389,"id":"3c508ce2-567b-49f3-a323-a1674d40b723","USID":"","name":"成都康新妇科医院","city":"成都","province":"四川","address":"鼓楼北四街99号附3-4","type":"","location":{"lng":"104.076303","lat":"30.670354"},"principal":"","shareholder":[],"url":[],"phone":[],"baiduad":{},"news":{},"putian":{},"comments":{},"note":""},{"dataversion":"draft1","created":1463576983,"id":"3cd2de0d-a155-46a4-9ec8-1d5239302a5a","USID":"","name":"北京前海股骨头医院","city":"北京","province":"北京","address":"地安门西大街丙28号","type":"","location":{"lng":"116.385172","lat":"39.932927"},"principal":"","shareholder":[],"url":[],"phone":[],"baiduad":{},"news":{},"putian":{},"comments":{},"note":""},{"dataversion":"draft1","created":1463405724,"updated":1463405724,"id":"3edf7ef3-30b6-46fd-a8f7-7d898dd25756","USID":"","name":"成都糖尿病专科医院","city":"成都","province":"四川","address":"三官桥街16号","type":"","principal":"","shareholder":[""],"url":[""],"phone":[""],"baiduad":{},"news":{"evidence":[{"url":"","title":"","snapshot":"","dateline":""}]},"putian":{},"comments":{"evidence":[{"url":"","title":"","snapshot":"","dateline":""}]},"note":"","location":{"lng":"103.628531","lat":"30.991332"}},{"dataversion":"draft1","created":1463529389,"id":"3f635079-acb0-45d9-8423-aa51b7c174b8","USID":"","name":"成都济民女子医院","city":"成都","province":"四川","address":null,"type":"","location":"","principal":"","shareholder":[],"url":[],"phone":[],"baiduad":{},"news":{},"putian":{},"comments":{},"note":""},{"dataversion":"draft1","created":1463529389,"id":"3fd24a3b-2a2e-4e1e-b403-01915c896afa","USID":"","name":"四川生殖健康中心专科医院","city":"成都","province":"四川","address":"一环路西三段13号","type":"","location":{"lng":"104.040177","lat":"30.670024"},"principal":"","shareholder":[],"url":[],"phone":[],"baiduad":{},"news":{},"putian":{},"comments":{},"note":""},{"dataversion":"draft1","created":1463531060,"id":"4039c580-0453-4494-b265-a37679ebe41d","USID":"","name":"涪陵博生和美妇产医院","city":"重庆","province":"重庆","address":"滨江路锦天名都外滩1号","type":"","location":{"lng":"107.396231","lat":"29.710628"},"principal":"","shareholder":[],"url":[],"phone":[],"baiduad":{},"news":{},"putian":{},"comments":{},"note":""},{"dataversion":"draft1","created":1463451230,"updated":1463451230,"id":"407fc918-6672-49a6-b472-12f9e3ff8da7","USID":"","name":"上海阳光中医医院","city":"上海","province":"上海","address":"芷江中路274","type":"民营医院","principal":"","shareholder":[""],"url":[""],"phone":[""],"baiduad":{},"news":{"evidence":[{"url":"http://tech.qq.com/a/20160501/017681.htm","title":"腾讯科技","snapshot":"http://webcache.googleusercontent.com/search?ion=1&sourceid=chrome-psyapi2&q=cache%3A%2F%2Ftech.qq.com%2Fa%2F20160501%2F017681.htm&oq=cache%3A%2F%2Ftech.qq.com%2Fa%2F20160501%2F017681.htm&rlz=1C5CHFA_enUS659US659&ie=UTF-8&aqs=chrome..69i57j69i58j69i60l3.7055j0j7&bav=on.2,or.r_cp.&bvm=bv.122129774,d.cGc&biw=1438&bih=711&dpr=2&ech=1&psi=-m86V5rwBI2ujwPSgYS4Bg.1463447549083.3&ei=-m86V5rwBI2ujwPSgYS4Bg&emsg=NCSR&noj=1","dateline":"GithubOpenPowerProgrammer, OpenPower, 2016-05-17T02:13:46.158Z - "}]},"putian":{"confirm":"Yes","evidence":[{"url":"https://zh.wikipedia.org/wiki/%E8%8E%86%E7%94%B0%E7%B3%BB","title":"维基百科","snapshot":"https://zh.wikipedia.org/wiki/%E8%8E%86%E7%94%B0%E7%B3%BB","dateline":"GithubOpenPowerProgrammer, OpenPower, 2016-05-17T02:13:31.031Z - "}]},"comments":{"evidence":[{"url":"","title":"","snapshot":"","dateline":""}]},"note":"","location":{"lng":"121.471649","lat":"31.2592"}},{"dataversion":"draft1","created":1463529389,"id":"40f9c5fc-6f04-4978-ad72-92d26987b0f7","USID":"","name":"四川肛肠医院","city":"成都","province":"四川","address":"武侯大道双楠段313号","type":"","location":{"lng":"104.015131","lat":"30.637393"},"principal":"","shareholder":[],"url":[],"phone":[],"baiduad":{},"news":{},"putian":{},"comments":{},"note":""},{"dataversion":"draft1","created":1463447677,"updated":1463447677,"id":"41254444-60e4-4a51-a46f-e9fdc3418c6d","USID":"","name":"上海康新医院","city":"上海","province":"上海","address":"上海市静安区余姚路139号(常德路口) ","type":"民营医院","location":{"lat":"31.2363073","lng":"121.4409128"},"principal":"","shareholder":[""],"url":[""],"phone":[""],"baiduad":{},"news":{"evidence":[{"url":"http://tech.qq.com/a/20160501/017681.htm","title":"腾讯科技","snapshot":"http://webcache.googleusercontent.com/search?ion=1&sourceid=chrome-psyapi2&q=cache%3A%2F%2Ftech.qq.com%2Fa%2F20160501%2F017681.htm&oq=cache%3A%2F%2Ftech.qq.com%2Fa%2F20160501%2F017681.htm&rlz=1C5CHFA_enUS659US659&ie=UTF-8&aqs=chrome..69i57j69i58j69i60l3.7055j0j7&bav=on.2,or.r_cp.&bvm=bv.122129774,d.cGc&biw=1438&bih=711&dpr=2&ech=1&psi=-m86V5rwBI2ujwPSgYS4Bg.1463447549083.3&ei=-m86V5rwBI2ujwPSgYS4Bg&emsg=NCSR&noj=1","dateline":"GithubOpenPowerProgrammer, OpenPower, 2016-05-17T01:12:57.107Z - "}]},"putian":{"confirm":"Yes","evidence":[{"url":"https://zh.wikipedia.org/wiki/%E8%8E%86%E7%94%B0%E7%B3%BB","title":"维基百科","snapshot":"https://zh.wikipedia.org/wiki/%E8%8E%86%E7%94%B0%E7%B3%BB","dateline":"GithubOpenPowerProgrammer, OpenPower, 2016-05-17T01:12:13.495Z - "}]},"comments":{"evidence":[{"url":"http://wenda.tianya.cn/question/4c631ef6785e4cce","title":"天涯","snapshot":"http://wenda.tianya.cn/question/4c631ef6785e4cce","dateline":"GithubOpenPowerProgrammer, OpenPower, 2016-05-17T01:14:35.498Z - "}]},"note":""},{"dataversion":"draft1","created":1462891549,"updated":1462891549,"id":"414bae8f-d590-4d03-9c3f-d2c0b843491f","USID":"","name":"上海市黄浦区中西医结合医院","city":"上海","province":"上海","address":"黄家路163号(近跨龙路)","type":"民营医院","principal":"","shareholder":[""],"url":["http://www.hpzxy.org/"],"phone":[""],"baiduad":{},"news":{"evidence":[{"url":"http://www.mnw.cn/news/pt/1172228.html","title":"闽南网综合","snapshot":"http://webcache.googleusercontent.com/search?q=cache%3A%2F%2Fwww.mnw.cn%2Fnews%2Fpt%2F1172228.html&rlz=1C5CHFA_enUS659US659&oq=cache%3A%2F%2Fwww.mnw.cn%2Fnews%2Fpt%2F1172228.html&aqs=chrome..69i57j69i58j69i60.2197j0j4&sourceid=chrome&ie=UTF-8","dateline":"GithubOpenPowerProgrammer, OpenPower, 2016-05-10T14:43:01.327Z - "}]},"putian":{"confirm":"Yes","evidence":[{"url":"http://tech.qq.com/a/20160501/017681.htm","title":"腾讯科技","snapshot":"http://webcache.googleusercontent.com/search?q=cache%3A%2F%2Ftech.qq.com%2Fa%2F20160501%2F017681.htm&rlz=1C5CHFA_enUS659US659&oq=cache%3A%2F%2Ftech.qq.com%2Fa%2F20160501%2F017681.htm&aqs=chrome..69i57j69i58j69i60.6766j0j7&sourceid=chrome&ie=UTF-8","dateline":"GithubOpenPowerProgrammer, OpenPower, 2016-05-10T14:43:04.038Z - "},{"url":"https://zh.wikipedia.org/wiki/%E8%8E%86%E7%94%B0%E7%B3%BB","title":"维基百科","snapshot":"https://zh.wikipedia.org/wiki/%E8%8E%86%E7%94%B0%E7%B3%BB","dateline":"GithubOpenPowerProgrammer, OpenPower, 2016-05-10T14:39:09.900Z - "}]},"comments":{"evidence":[{"url":"","title":"","snapshot":"","dateline":""}]},"note":"","location":{"lng":"121.494477","lat":"31.21632"}},{"dataversion":"draft1","created":1463529389,"id":"41f30b07-93c0-46ed-9a61-62199f3e25ee","USID":"","name":"成都西南骨科医院","city":"成都","province":"四川","address":"武侯大道双楠段38号成都西南骨科医院内","type":"","location":{"lng":"104.018169","lat":"30.638021"},"principal":"","shareholder":[],"url":[],"phone":[],"baiduad":{},"news":{},"putian":{},"comments":{},"note":""},{"dataversion":"draft1","created":1462892254,"updated":1462892254,"id":"463f3075-c6f5-4f3d-b55a-bd32193ead46","USID":"310103000124326","name":"上海时光整形外科医院","city":"上海","province":"上海","address":"上海市黄浦区普安路189号","type":"民营医院","location":{"lat":"31.2225013","lng":"121.4786946"},"principal":"陈兰兰","shareholder":["林国雄","上海曙光科技发展中心","林国瑞","苏元族"],"url":["http://www.sh-shuguang.com/"],"phone":["400-820-5579"],"baiduad":{},"news":{"evidence":[{"url":"http://tech.qq.com/a/20160501/017681.htm","title":"腾讯科技","snapshot":"http://webcache.googleusercontent.com/search?q=cache%3A%2F%2Ftech.qq.com%2Fa%2F20160501%2F017681.htm&rlz=1C5CHFA_enUS659US659&oq=cache%3A%2F%2Ftech.qq.com%2Fa%2F20160501%2F017681.htm&aqs=chrome..69i57j69i58j69i60.6766j0j7&sourceid=chrome&ie=UTF-8","dateline":"GithubOpenPowerProgrammer, OpenPower, 2016-05-10T14:51:12.925Z - "}]},"putian":{"confirm":"Yes","evidence":[{"url":"https://zh.wikipedia.org/wiki/%E8%8E%86%E7%94%B0%E7%B3%BB","title":"维基百科","snapshot":"https://zh.wikipedia.org/wiki/%E8%8E%86%E7%94%B0%E7%B3%BB","dateline":"GithubOpenPowerProgrammer, OpenPower, 2016-05-10T14:52:55.731Z - "}]},"comments":{"evidence":[{"url":"http://51jk.c029.com/infoShow_1167_18511.html","title":"上海时光整形外科医院是骗子医院","snapshot":"http://webcache.googleusercontent.com/search?q=cache%3A%2F%2F51jk.c029.com%2FinfoShow_1167_18511.html&rlz=1C5CHFA_enUS659US659&oq=cache%3A%2F%2F51jk.c029.com%2FinfoShow_1167_18511.html&aqs=chrome..69i57j69i58.5262j0j4&sourceid=chrome&ie=UTF-8","dateline":"GithubOpenPowerProgrammer, OpenPower, 2016-05-10T14:54:10.899Z - "},{"url":"http://webcache.googleusercontent.com/search?q=cache%3A%2F%2F112812.com%2F44260.html&rlz=1C5CHFA_enUS659US659&oq=cache%3A%2F%2F112812.com%2F44260.html&aqs=chrome..69i57j69i58.3631j0j4&sourceid=chrome&ie=UTF-8","title":"举报上海海时光整形外科医院—骗子太黑了黑医院 - 理财方法","snapshot":"http://webcache.googleusercontent.com/search?q=cache%3A%2F%2F112812.com%2F44260.html&rlz=1C5CHFA_enUS659US659&oq=cache%3A%2F%2F112812.com%2F44260.html&aqs=chrome..69i57j69i58.3631j0j4&sourceid=chrome&ie=UTF-8","dateline":"GithubOpenPowerProgrammer, OpenPower, 2016-05-10T14:54:10.899Z - "},{"url":"http://webcache.googleusercontent.com/search?q=cache://www.dfasme.com/qiyenews/news/2016042793993.html&num=1&rlz=1C5CHFA_enUS659US659&strip=1&vwsrc=0","title":"用户评论","snapshot":"http://webcache.googleusercontent.com/search?q=cache://www.dfasme.com/qiyenews/news/2016042793993.html&num=1&rlz=1C5CHFA_enUS659US659&strip=1&vwsrc=0","dateline":"GithubOpenPowerProgrammer, OpenPower, 2016-05-10T14:54:10.899Z - "}]},"note":""},{"dataversion":"draft1","created":1463529389,"id":"4698828d-8174-41cc-b33e-536c13218168","USID":"","name":"武警四川省消防总队医院(妇科/泌尿科)","city":"成都","province":"四川","address":"石人南路21号","type":"","location":{"lng":"104.027127","lat":"30.671524"},"principal":"","shareholder":[],"url":[],"phone":[],"baiduad":{},"news":{},"putian":{},"comments":{},"note":""},{"dataversion":"draft1","created":1462696233,"updated":1462696233,"id":"4b0f586b-d0b5-4c3c-9c3d-8d41c81207f0","USID":310115000904981,"name":"上海华美医疗美容医院","city":"上海","province":"上海","address":"源深路155号1-3层(浦东大道与源深路交叉口东南侧)","type":"民营医院","location":{"lng":"121.530756","lat":"31.239442"},"principal":"雷启龙","shareholder":["黄志佳","洪玲燕"],"url":["http://www.shhuamei.cn/"],"phone":["021-58856655","400-8806580"],"baiduad":{"confirm":true,"evidence":[{"url":"http://mp.weixin.qq.com/s?__biz=MTI0MDU3NDYwMQ==&mid=229797933&idx=1&sn=d7b4d6917c2941efb2eee7494201c93e&scene=1&key=1936e2bc22c2ceb5b6cec9957668679bdee0eccba1c2ad490fb58174dccade1ad09d2a74f232433cdfc40c6553844685&ascene=1&uin=MjAwMzY4MTg0MA%3D%3D&devicetype=webwx&version=70000001&pass_ticket=cA2YNqi6SeOqPHDGMkFn4V8VhPmwdC72TQSVf6rqoWn45p3PCw1vhwI%2F0MWvr57L","title":"百度竞价排名:山寨医院冒充知名医院","snapshot":"http://i.imgur.com/K2jBQnw.jpg","dateline":"san577478, OpenPower, 05/08/2016 @ 8:43am (UTC) - 上海华美医院在使用百度推广时，仍然在百度推广中设置了“九院”、“九院官网”、“九院地址”等关键词"}]},"news":{"evidence":[{"url":"http://mp.weixin.qq.com/s?__biz=MTI0MDU3NDYwMQ==&mid=229797933&idx=1&sn=d7b4d6917c2941efb2eee7494201c93e&scene=1&key=1936e2bc22c2ceb5b6cec9957668679bdee0eccba1c2ad490fb58174dccade1ad09d2a74f232433cdfc40c6553844685&ascene=1&uin=MjAwMzY4MTg0MA%3D%3D&devicetype=webwx&version=70000001&pass_ticket=cA2YNqi6SeOqPHDGMkFn4V8VhPmwdC72TQSVf6rqoWn45p3PCw1vhwI%2F0MWvr57L","title":"百度竞价排名:山寨医院冒充知名医院","snapshot":"http://i.imgur.com/K2jBQnw.jpg","dateline":"san577478, OpenPower, 05/08/2016 @ 8:43am (UTC) - 上海华美医院在使用百度推广时，仍然在百度推广中设置了“九院”、“九院官网”、“九院地址”等关键词"},{"url":"http://newspaper.jfdaily.com/xwcb/html/2016-01/06/content_163209.htm","title":"民营医院傍名院 虚假宣传被罚款","snapshot":"http://i.imgur.com/y5RMFoJ.png","dateline":"san577478, OpenPower,05/08/2016 @ 8:46am (UTC) - 日前，“上海华美医疗美容医院”因冒用他人名义进行虚假宣传，被工商部门依法处罚款20万元。"}]},"putian":{"confirm":"Yes","evidence":[{"url":"http://finance.sina.com.cn/chanjing/cyxw/20140717/110219729613.shtml","title":"俞敏洪炮轰莆田系民营医院","snapshot":"http://i.imgur.com/Wez5qVP.jpg","dateline":"san577478, OpenPower,05/08/2016 @ 8:46am (UTC) - 圈内人士知道的陈氏产业，还有华美整形系医院"}]},"comments":{"evidence":[{"url":"","snapshot":"","title":"","dateline":""}]}},{"dataversion":"draft1","created":1463042282,"updated":1463042282,"id":"4c32dc61-a832-40b7-94ef-01099bb8a998","USID":"","name":"上海安平医院","city":"上海","province":"上海","address":"中国上海市浦东新区川沙路4425号","type":"民营医院","location":{"lat":"31.2012905","lng":"121.6962203"},"principal":"","shareholder":[""],"url":["http://www.apyy120.com/"],"phone":["021-58981111","021-58982222"],"baiduad":{},"news":{"evidence":[{"url":"http://tech.qq.com/a/20160501/017681.htm","title":"腾讯科技","snapshot":"http://tech.qq.com/a/20160501/017681.htm","dateline":"GithubOpenPowerProgrammer, OpenPower, 2016-05-12T08:34:00.235Z - "}]},"putian":{"confirm":"Yes","evidence":[{"url":"https://zh.wikipedia.org/zh/%E8%8E%86%E7%94%B0%E7%B3%BB","title":"维基百科","snapshot":"https://zh.wikipedia.org/zh/%E8%8E%86%E7%94%B0%E7%B3%BB","dateline":"GithubOpenPowerProgrammer, OpenPower, 2016-05-12T08:32:32.851Z - "}]},"comments":{"evidence":[{"url":"http://tieba.baidu.com/p/685180058","title":"百度贴百","snapshot":"http://webcache.googleusercontent.com/search?sourceid=chrome-psyapi2&ion=1&espv=2&ie=UTF-8&q=cache%3A%2F%2Ftieba.baidu.com%2Fp%2F685180058&oq=cache%3A%2F%2Ftieba.baidu.com%2Fp%2F685180058&rlz=1C5CHFA_enUS659US659&aqs=chrome..69i57j69i58.6021j0j4","dateline":"GithubOpenPowerProgrammer, OpenPower, 2016-05-12T08:37:56.184Z - "}]},"note":""},{"dataversion":"draft1","created":1463529389,"id":"4c819c8b-0fd3-4d84-baf9-294e3c539695","USID":"","name":"绵阳玛丽亚妇产儿童医院","city":"成都","province":"四川","address":"一环路北一段125号","type":"","location":{"lng":"104.050639","lat":"30.683879"},"principal":"","shareholder":[],"url":[],"phone":[],"baiduad":{},"news":{},"putian":{},"comments":{},"note":""},{"dataversion":"draft1","created":1462849918,"updated":1462849918,"id":"4d7702d3-fe24-463d-9b02-fb330b990cdd","USID":"91310109681013594D","name":"上海天伦医院","city":"上海","province":"上海","address":"上海市虹口区凉城路545号","type":"民营医院","location":{"lat":"31.290862","lng":"121.470761"},"principal":"丁光燕","shareholder":["上海渝协投资管理有限公司"],"url":["http://www.shtl120.com/","http://www.sh-byby.org/","http://www.shtlyy.com/","http://www.shtianlun.org/","http://www.tianlun100.com/"],"phone":["021-65667633","021-65259999","+9864006660102","021-55158829"],"baiduad":{},"news":{"evidence":[{"url":"","title":"","snapshot":"","dateline":""}]},"putian":{"confirm":"Yes","evidence":[{"url":"http://news.sina.com.cn/c/nd/2016-05-03/doc-ifxrtzte9887908.shtml","title":"“莆田系”民营医院名单大揭秘","snapshot":"http://webcache.googleusercontent.com/search?sourceid=chrome-psyapi2&ion=1&espv=2&ie=UTF-8&q=cache%3A%2F%2Fnews.sina.com.cn%2Fc%2Fnd%2F2016-05-03%2Fdoc-ifxrtzte9887908.shtml&oq=cache%3A%2F%2Fnews.sina.com.cn%2Fc%2Fnd%2F2016-05-03%2Fdoc-ifxrtzte9887908.shtml&rlz=1C5CHFA_enUS659US659&aqs=chrome..69i57j69i58.6786j0j4","dateline":"GithubOpenPowerProgrammer, OpenPower, 2016-05-10T03:03:43.927Z - "},{"url":"","title":"","snapshot":"","dateline":""}]},"comments":{"evidence":[{"url":"http://bbs.tianya.cn/post-41-1230858-1.shtml","title":"上海天伦医院黑心骗子医院，黄启明黑心骗子医生，虹口区卫生局腐败透顶","snapshot":"http://webcache.googleusercontent.com/search?q=cache%3A%2F%2Fbbs.tianya.cn%2Fpost-41-1230858-1.shtml&rlz=1C5CHFA_enUS659US659&oq=cache%3A%2F%2Fbbs.tianya.cn%2Fpost-41-1230858-1.shtml&aqs=chrome..69i57j69i58.3751j0j4&sourceid=chrome&ie=UTF-8","dateline":"GithubOpenPowerProgrammer, OpenPower, 2016-05-10T03:10:34.846Z - "},{"url":"http://tieba.baidu.com/p/2421760105?pn=2","title":"回复：上海天伦医院骗子","snapshot":"http://webcache.googleusercontent.com/search?q=cache%3A%2F%2Ftieba.baidu.com%2Fp%2F2421760105%3Fpn%3D2&rlz=1C5CHFA_enUS659US659&oq=cache%3A%2F%2Ftieba.baidu.com%2Fp%2F2421760105%3Fpn%3D2&aqs=chrome..69i57j69i58.2816j0j4&sourceid=chrome&ie=UTF-8","dateline":"GithubOpenPowerProgrammer, OpenPower, 2016-05-10T03:10:23.022Z - "},{"url":"http://www.dianping.com/review/47644143","title":"大众点评","snapshot":"http://webcache.googleusercontent.com/search?q=cache%3A%2F%2Fwww.dianping.com%2Freview%2F47644143&rlz=1C5CHFA_enUS659US659&oq=cache%3A%2F%2Fwww.dianping.com%2Freview%2F47644143&aqs=chrome..69i57j69i58.5060j0j4&sourceid=chrome&ie=UTF-8","dateline":"GithubOpenPowerProgrammer, OpenPower, 2016-05-10T03:10:23.022Z - "}]},"note":""},{"dataversion":"draft1","created":1463576867,"updated":1463576867,"id":"4dbfbe87-ad6b-4282-9cda-c3a4188a027e","USID":"110108013349359","name":"北京艾丽斯妇科医院","city":"北京","province":"北京","address":"北四环西路9号","type":"民营医院","principal":"赵平安","shareholder":["林美连","北京英才医院管理有限公司"],"url":["http://www.fuke120.cn/"],"phone":["010-62800867"],"baiduad":{},"news":{"evidence":[{"url":"http://money.163.com/16/0329/09/BJAIJCRK00253B0H.html","title":"艾丽斯妇科医院被疑过度医疗 手术价格相差十倍","snapshot":"http://i.imgur.com/22Em4GB.png","dateline":""}]},"putian":{"confirm":"Yes","evidence":[{"url":"http://qyxy.baic.gov.cn/gjjbj/gjjQueryCreditAction!openEntInfo.dhtml?entId=F1D83577396A4A8CBD5711CB38ACD69E&credit_ticket=5CDA7730DB5863DED6B61FBD2E1445CA&entNo=110102009046944&timeStamp=1463576531192","title":"北京英才医院管理有限公司","snapshot":"http://i.imgur.com/4IBdHYT.png","dateline":""},{"url":"http://www.gdptsh.com/shanghuihuiyuan/712.html","title":"名誉会长 林金宗","snapshot":"http://i.imgur.com/3439Xjk.png","dateline":""}]},"comments":{"evidence":[{"url":"http://ask.yaolan.com/question/15112409310913796432.html","title":"北京艾丽斯妇科医院黑吗？这个医院怎么样，求解啊。","snapshot":"http://i.imgur.com/mueyRMY.png","dateline":""}]},"note":"","location":{"lng":"116.334853","lat":"39.987199"}},{"dataversion":"draft1","created":1463618411,"id":"4e8e260e-f593-4214-8677-a013aa668445","USID":"","name":"深圳龙济医院","city":"深圳","province":"广东","address":"龙观西路342号","type":"","location":{"lng":"114.012545","lat":"22.658409"},"principal":"","shareholder":[],"url":[],"phone":[],"baiduad":{},"news":{},"putian":{},"comments":{},"note":""},{"dataversion":"draft1","created":1462890540,"updated":1462890540,"id":"4ec198c4-4491-4e4b-b1d7-0b3be12a826e","USID":"","name":"上海市浦东新区传染病医院","city":"上海","province":"上海","address":"上海市浦东新区张衡路528号","type":"","location":{"lat":"31.186433","lng":"121.591843"},"principal":"","shareholder":[""],"url":["http://www.sgyy.cn/cn/index/"],"phone":["021-20256638","021-20256639"],"baiduad":{},"news":{"evidence":[{"url":"","title":"","snapshot":"","dateline":""}]},"putian":{"confirm":"Yes","evidence":[{"url":"https://zh.wikipedia.org/wiki/%E8%8E%86%E7%94%B0%E7%B3%BB","title":"维基百科","snapshot":"https://zh.wikipedia.org/wiki/%E8%8E%86%E7%94%B0%E7%B3%BB","dateline":"GithubOpenPowerProgrammer, OpenPower, 2016-05-10T14:17:40.786Z - "}]},"comments":{"evidence":[{"url":"http://www.dianping.com/shop/2392477/review_more_grade","title":"大众点评","snapshot":"http://imgur.com/a/Yzf5W","dateline":"GithubOpenPowerProgrammer, OpenPower, 2016-05-10T14:28:27.710Z - "},{"url":"http://www.dianping.com/shop/2392477/review_more_grade","title":"大众点评","snapshot":"http://imgur.com/a/Yzf5W","dateline":"GithubOpenPowerProgrammer, OpenPower, 2016-05-10T14:28:20.296Z - "}]},"note":""},{"dataversion":"draft1","created":1463618411,"id":"503796cf-3308-458e-bac1-62a340ce46de","USID":"","name":"江门玛丽妇科医院","city":"江门","province":"广东","address":"胜利路(近贯溪市场)","type":"","location":{"lng":"113.078844","lat":"22.583471"},"principal":"","shareholder":[],"url":[],"phone":[],"baiduad":{},"news":{},"putian":{},"comments":{},"note":""},{"dataversion":"draft1","created":1463531060,"id":"5229d747-d30b-4a3c-822f-60143fdd2044","USID":"","name":"重庆阳光医院","city":"重庆","province":"重庆","address":"建新北路34号附3号","type":"","location":{"lng":"106.528798","lat":"29.581547"},"principal":"","shareholder":[],"url":[],"phone":[],"baiduad":{},"news":{},"putian":{},"comments":{},"note":""},{"dataversion":"draft1","created":1463576983,"id":"541caf5e-1b86-4adf-b5cd-fc234a66243f","USID":"","name":"北京麦瑞骨科医院","city":"北京","province":"北京","address":"北苑路甲1号","type":"","location":{"lng":"116.418567","lat":"40.023324"},"principal":"","shareholder":[],"url":[],"phone":[],"baiduad":{},"news":{},"putian":{},"comments":{},"note":""},{"dataversion":"draft1","created":1463620107,"updated":1463620107,"id":"544583ee-c558-495d-a92f-7ffd7e05117b","USID":"","name":"深圳中仁泌尿外科医院","city":"深圳","province":"广东","address":"龙华新区龙华街道工业西路97号(公交站建泰轮胎厂)","type":"民营医院","principal":"林国金","shareholder":[""],"url":["http://yyk.99.com.cn/baoan/105761/"],"phone":["4008669999"],"baiduad":{},"news":{"evidence":[{"url":"","title":"","snapshot":"","dateline":""}]},"putian":{"confirm":"Yes","evidence":[{"url":"http://szcredit.com.cn/web/gspt/newGSPTDetail3.aspx?ID=fdc9ca483af345c093af7b624e76764f","title":"深圳中仁泌尿外科医院有限公司","snapshot":"http://imgur.com/5PiBr6e","dateline":""},{"url":"http://www.ptws.com.cn/DoctorBrief/48870580140.shtml","title":"莆田市卫生综合服务网－专家介绍","snapshot":"http://imgur.com/PdDIwHo","dateline":""}]},"comments":{"evidence":[{"url":"","title":"","snapshot":"","dateline":""}]},"note":"","location":{"lng":"114.020002","lat":"22.646219"}},{"dataversion":"draft1","created":1463043040,"updated":1463043040,"id":"565eddee-c58b-4671-806b-4927efe7e8aa","USID":"","name":"上海同德医院","city":"上海","province":"上海","address":"上海市青浦区盈港路1006号","type":"","location":{"lat":"31.1612303","lng":"121.1056037"},"principal":"","shareholder":[""],"url":["http://www.shtdyy.com/"],"phone":["021-69229050"],"baiduad":{},"news":{"evidence":[{"url":"http://tech.qq.com/a/20160501/017681.htm","title":"腾讯科技","snapshot":"http://webcache.googleusercontent.com/search?q=cache%3A%2F%2Ftech.qq.com%2Fa%2F20160501%2F017681.htm&rlz=1C5CHFA_enUS659US659&oq=cache%3A%2F%2Ftech.qq.com%2Fa%2F20160501%2F017681.htm&aqs=chrome..69i57j69i58j69i60l3.2910j0j4&sourceid=chrome&ie=UTF-8","dateline":"GithubOpenPowerProgrammer, OpenPower, 2016-05-12T08:48:55.417Z - "}]},"putian":{"confirm":"Yes","evidence":[{"url":"https://zh.wikipedia.org/zh/%E8%8E%86%E7%94%B0%E7%B3%BB","title":"维基百科","snapshot":"https://zh.wikipedia.org/zh/%E8%8E%86%E7%94%B0%E7%B3%BB","dateline":"GithubOpenPowerProgrammer, OpenPower, 2016-05-12T08:47:33.127Z - "}]},"comments":{"evidence":[{"url":"http://www.dianping.com/shop/3498982/review_more_flower","title":"大众点评","snapshot":"http://www.dianping.com/shop/3498982/review_more_flower","dateline":"GithubOpenPowerProgrammer, OpenPower, 2016-05-12T08:50:38.427Z - "}]},"note":""},{"dataversion":"draft1","created":1463529389,"id":"586bf103-3e0e-4097-9572-10d219dfaff1","USID":"","name":"成都博润白癜风医院","city":"成都","province":"四川","address":"佳灵路6号(红牌楼家乐福对面)","type":"","location":{"lng":"104.027927","lat":"30.633919"},"principal":"","shareholder":[],"url":[],"phone":[],"baiduad":{},"news":{},"putian":{},"comments":{},"note":""},{"dataversion":"draft1","created":1463531060,"id":"58eb5e1e-b944-4bba-b399-774cb45fc495","USID":"","name":"涪陵三峡医院","city":"重庆","province":"重庆","address":"太极大道2号(四环路口)","type":"","location":{"lng":"107.400091","lat":"29.694400"},"principal":"","shareholder":[],"url":[],"phone":[],"baiduad":{},"news":{},"putian":{},"comments":{},"note":""},{"dataversion":"draft1","created":1463618411,"id":"5997c56e-af9c-4d9b-9094-1de36ad00c2d","USID":"","name":"顺德广济中医院","city":"佛山","province":"广东","address":"金沙大道","type":"","location":{"lng":"113.267133","lat":"22.801075"},"principal":"","shareholder":[],"url":[],"phone":[],"baiduad":{},"news":{},"putian":{},"comments":{},"note":""},{"dataversion":"draft1","created":1463618411,"id":"5a9f5122-70a8-4ffd-a28d-b22dcfac458d","USID":"","name":"广州长安医院","city":"广州","province":"广东","address":"天河路502-2号","type":"","location":{"lng":"113.336039","lat":"23.132695"},"principal":"","shareholder":[],"url":[],"phone":[],"baiduad":{},"news":{},"putian":{},"comments":{},"note":""},{"dataversion":"draft1","created":1463531060,"id":"5b141fcb-7eaa-41b1-a131-e2edc8ecdf0a","USID":"","name":"重庆五洲女子医院","city":"重庆","province":"重庆","address":"谢家湾正街3号6幢","type":"","location":{"lng":"106.514094","lat":"29.527805"},"principal":"","shareholder":[],"url":[],"phone":[],"baiduad":{},"news":{},"putian":{},"comments":{},"note":""},{"dataversion":"draft1","created":1463618411,"id":"5c01208c-181d-464b-9bb7-d803042e94bd","USID":"","name":"东莞南华妇科医院","city":"东莞","province":"广东","address":"大朗富民北路163号","type":"","location":{"lng":"113.913400","lat":"22.960087"},"principal":"","shareholder":[],"url":[],"phone":[],"baiduad":{},"news":{},"putian":{},"comments":{},"note":""},{"dataversion":"draft1","created":1463529389,"id":"5f74fe94-7593-4785-bdde-66f5452d56ea","USID":"","name":"成都玛利亚(南区)天府国际妇产儿童医院","city":"成都","province":"四川","address":"九眼桥头一环路东五段8号","type":"","location":{"lng":"104.091357","lat":"30.641423"},"principal":"","shareholder":[],"url":[],"phone":[],"baiduad":{},"news":{},"putian":{},"comments":{},"note":""},{"dataversion":"draft1","created":1463529389,"id":"619ae65a-67c4-4044-98bc-229eb88ed4d8","USID":"","name":"成都市西区医院产科","city":"成都","province":"四川","address":"安蓉西路与安蓉路交叉口西50米","type":"","location":{"lng":"104.025174","lat":"30.696185"},"principal":"","shareholder":[],"url":[],"phone":[],"baiduad":{},"news":{},"putian":{},"comments":{},"note":""},{"dataversion":"draft1","created":1463529389,"id":"6579a20d-3630-4a26-987b-67b248467281","USID":"","name":"四川阳光妇科医院","city":"成都","province":"四川","address":"淮口镇淮口镇淮州大道200号(金堂县淮口镇国土资源管理所西)","type":"","location":{"lng":"104.562890","lat":"30.711649"},"principal":"","shareholder":[],"url":[],"phone":[],"baiduad":{},"news":{},"putian":{},"comments":{},"note":""},{"dataversion":"draft1","created":1463618411,"id":"66ce06e8-360a-4789-853a-eb8b1c52b859","USID":"","name":"顺德阳光康复医院","city":"佛山","province":"广东","address":null,"type":"","location":"","principal":"","shareholder":[],"url":[],"phone":[],"baiduad":{},"news":{},"putian":{},"comments":{},"note":""},{"dataversion":"draft1","created":1463575040,"updated":1463575040,"id":"6abdaefc-2dfd-40ad-8d56-e36d0cc2833f","USID":"","name":"武警北京总队医院","city":"北京","province":"北京","address":"东三里屯1号院","type":"外包科室","principal":"","shareholder":[""],"url":[""],"phone":[""],"baiduad":{},"news":{"evidence":[{"url":"http://news.ifeng.com/a/20160501/48651671_0.shtml","title":"专家：百度竞价排名＋武警医院＋莆田系＝医疗毒瘤","snapshot":"http://i.imgur.com/WgN6hn2.png","dateline":""}]},"putian":{},"comments":{"evidence":[{"url":"","title":"","snapshot":"","dateline":""}]},"note":"","location":{"lng":"116.45787","lat":"39.935606"}},{"dataversion":"draft1","created":1463448447,"updated":1463448447,"id":"6b01e685-6aca-4f51-be07-d1c81b9b01da","USID":"310108000378282","name":"上海玫瑰医疗美容医院","city":"上海","province":"上海","address":"上海市闸北区长安路1138号(近天目西路)","type":"民营医院","location":{"lat":"31.246992","lng":"121.452042"},"principal":"陈志强","shareholder":["陈志强","詹国平"],"url":["http://www.shrose.cn/"],"phone":["021-36365666"],"baiduad":{},"news":{"evidence":[{"url":"http://tech.qq.com/a/20160501/017681.htm","title":"腾讯科技","snapshot":"http://webcache.googleusercontent.com/search?ion=1&sourceid=chrome-psyapi2&q=cache%3A%2F%2Ftech.qq.com%2Fa%2F20160501%2F017681.htm&oq=cache%3A%2F%2Ftech.qq.com%2Fa%2F20160501%2F017681.htm&rlz=1C5CHFA_enUS659US659&ie=UTF-8&aqs=chrome..69i57j69i58j69i60l3.7055j0j7&bav=on.2,or.r_cp.&bvm=bv.122129774,d.cGc&biw=1438&bih=711&dpr=2&ech=1&psi=-m86V5rwBI2ujwPSgYS4Bg.1463447549083.3&ei=-m86V5rwBI2ujwPSgYS4Bg&emsg=NCSR&noj=1","dateline":"GithubOpenPowerProgrammer, OpenPower, 2016-05-17T01:25:25.317Z - "},{"url":"http://www.saic.gov.cn/fldyfbzdjz/dxal/201506/t20150629_158358.html","title":"玫瑰医院等民营医院假冒知名医院网站案","snapshot":"http://webcache.googleusercontent.com/search?q=cache%3A%2F%2Fwww.saic.gov.cn%2Ffldyfbzdjz%2Fdxal%2F201506%2Ft20150629_158358.html&rlz=1C5CHFA_enUS659US659&oq=cache%3A%2F%2Fwww.saic.gov.cn%2Ffldyfbzdjz%2Fdxal%2F201506%2Ft20150629_158358.html&aqs=chrome..69i57j69i58.2602j0j4&sourceid=chrome&ie=UTF-8","dateline":"GithubOpenPowerProgrammer, OpenPower, 2016-05-17T01:25:25.317Z - "}]},"putian":{"confirm":"Yes","evidence":[{"url":"https://zh.wikipedia.org/wiki/%E8%8E%86%E7%94%B0%E7%B3%BB","title":"维基百科(原名上海玫瑰女子医院)","snapshot":"https://zh.wikipedia.org/wiki/%E8%8E%86%E7%94%B0%E7%B3%BB","dateline":""}]},"comments":{"evidence":[{"url":"http://www.zhinews.com/tousu/20140118_333994.html","title":"上海玫瑰女子医院黑心乱收费","snapshot":"http://webcache.googleusercontent.com/search?ion=1&sourceid=chrome-psyapi2&q=cache%3A%2F%2Fwww.zhinews.com%2Ftousu%2F20140118_333994.html&oq=cache%3A%2F%2Fwww.zhinews.com%2Ftousu%2F20140118_333994.html&rlz=1C5CHFA_enUS659US659&ie=UTF-8&aqs=chrome..69i57j69i58.7656j0j7&bav=on.2,or.r_cp.&bvm=bv.122129774,d.cGc&biw=1438&bih=667&dpr=2&ech=1&psi=FHI6V4DEC4GWjQO5sLC4DA.1463448086000.3&ei=FHI6V4DEC4GWjQO5sLC4DA&emsg=NCSR&noj=1","dateline":"GithubOpenPowerProgrammer, OpenPower, 2016-05-17T01:22:41.049Z - "},{"url":"http://zw.buhlu.com/detail/41udi.html","title":"两成多民营医院存在违规经营","snapshot":"http://webcache.googleusercontent.com/search?ion=1&sourceid=chrome-psyapi2&q=cache%3A%2F%2Fzw.buhlu.com%2Fdetail%2F41udi.html&oq=cache%3A%2F%2Fzw.buhlu.com%2Fdetail%2F41udi.html&rlz=1C5CHFA_enUS659US659&ie=UTF-8&aqs=chrome..69i57j69i58.6711j0j7&bav=on.2,or.r_cp.&bvm=bv.122129774,d.cGc&biw=1438&bih=667&dpr=2&ech=1&psi=THI6V6XLMpCYjwP_lbWYDA.1463448142856.3&ei=THI6V6XLMpCYjwP_lbWYDA&emsg=NCSR&noj=1","dateline":"GithubOpenPowerProgrammer, OpenPower, 2016-05-17T01:22:41.049Z - "},{"url":"http://weibo.com/3987350844/CxcwWhvh1?type=comment#_rnd1463448381297","title":"微博用户","snapshot":"http://weibo.com/3987350844/CxcwWhvh1?type=comment#_rnd1463448381297","dateline":"GithubOpenPowerProgrammer, OpenPower, 2016-05-17T01:22:41.049Z - "}]},"note":""},{"dataversion":"draft1","created":1463618411,"id":"6b70366a-33fd-4165-bd73-5171bf7235df","USID":"","name":"东莞万福妇产医院","city":"东莞","province":"广东","address":"长德路199号","type":"","location":{"lng":"113.695461","lat":"22.814334"},"principal":"","shareholder":[],"url":[],"phone":[],"baiduad":{},"news":{},"putian":{},"comments":{},"note":""},{"dataversion":"draft1","created":1463529389,"id":"6d4991e5-d6c1-413a-984b-20029c58b565","USID":"","name":"成都阳光妇科医院","city":"成都","province":"四川","address":"淮口镇淮口镇淮州大道200号(金堂县淮口镇国土资源管理所西)","type":"","location":{"lng":"104.562890","lat":"30.711649"},"principal":"","shareholder":[],"url":[],"phone":[],"baiduad":{},"news":{},"putian":{},"comments":{},"note":""},{"dataversion":"draft1","created":1463406029,"updated":1463406029,"id":"6eaf0ad2-12c2-40fb-ae85-5fd1dfb752fa","USID":"91510105577363092L","name":"成都瑞恩糖尿病医院","city":"成都","province":"四川","address":"锣锅巷98号","type":"民营医院","principal":"黄玉华","shareholder":["黄玉华","雷会勇","王爱东","卓国金","邹双仁"],"url":[""],"phone":[""],"baiduad":{},"news":{"evidence":[{"url":"","title":"","snapshot":"","dateline":""}]},"putian":{},"comments":{"evidence":[{"url":"","title":"","snapshot":"","dateline":""}]},"note":"","location":{"lng":"104.073284","lat":"30.668750"}},{"dataversion":"draft1","created":1463618411,"id":"70f0bf71-fe99-4675-bec7-b0de49bd69d8","USID":"","name":"深圳韩美医疗美容医院","city":"深圳","province":"广东","address":"中民时代广场A座2层","type":"","location":{"lng":"114.105120","lat":"22.556937"},"principal":"","shareholder":[],"url":[],"phone":[],"baiduad":{},"news":{},"putian":{},"comments":{},"note":""},{"dataversion":"draft1","created":1462833606,"updated":1462833606,"id":"71f4149b-73b4-4b2c-b299-711603c9d3b1","USID":"91310104688719055G","name":"上海万众医院","city":"上海","province":"上海","address":"上海市徐汇区吴中路2、4、6号","type":"民营医院","location":{"lat":"31.189372","lng":"121.420752"},"principal":"占阳珊","shareholder":["上海万众医疗投资股份有限公司"],"url":["http://www.wz120.cc/"],"phone":["400-8892218"],"baiduad":{},"news":{"evidence":[{"url":"http://news.sohu.com/20160504/n447504621.shtml","title":"莆田系医院屡因肖像权遭名人告 陷入多起医疗纠纷","snapshot":"http://i.imgur.com/FXTAkQK.jpg","dateline":"san577478, OpenPower, 2016-05-09T22:39:59.364Z - 上文提到的上海万众医院，裁判文显示，近几年来，柳岩、林心如、董璇等一些比较知名的影视明星均以医院侵犯了肖像权提起过诉讼"}]},"putian":{"confirm":"Yes","evidence":[{"url":"http://www.shptsh.com/index.php?m=cms&q=view&id=94","title":"上海市莆田商会常务副会长占阳珊","snapshot":"http://i.imgur.com/JH0EdYA.jpg","dateline":"san577478, OpenPower, 2016-05-09T22:38:03.613Z - "},{"url":"http://tech.qq.com/a/20160501/023381.htm","title":"百度与莆田系为何难解难分","snapshot":"http://i.imgur.com/GNukm0K.jpg","dateline":"san577478, OpenPower, 2016-05-09T22:38:03.613Z - 詹阳斌同时也是其集团旗下上海万众医疗投资股份有限公司的董事长"}]},"comments":{"evidence":[{"url":"","title":"","snapshot":"","dateline":""}]}},{"dataversion":"draft1","created":1463529389,"id":"71faf34d-e20c-44ad-8965-a7055eb8db8d","USID":"","name":"成都天大不孕不育医院","city":"成都","province":"四川","address":"一环路南三段57号(衣冠庙立交桥旁)","type":"","location":{"lng":"104.053759","lat":"30.633960"},"principal":"","shareholder":[],"url":[],"phone":[],"baiduad":{},"news":{},"putian":{},"comments":{},"note":""},{"dataversion":"draft1","created":1463576983,"id":"73283c82-562b-41af-866b-db5f44c71589","USID":"","name":"北京慧中医院","city":"北京","province":"北京","address":"建华南路6号地杰长安驿B座31层(乘坐地铁一号线到永安里站下车C口出西行400米)","type":"","location":{"lng":"116.444924","lat":"39.907162"},"principal":"","shareholder":[],"url":[],"phone":[],"baiduad":{},"news":{},"putian":{},"comments":{},"note":""},{"dataversion":"draft1","created":1463531060,"id":"73461fa6-00d2-4068-b438-8fe1c01cd52b","USID":"","name":"重庆红楼医院","city":"重庆","province":"重庆","address":"长江二路39号附甲15号(近大黄路竞地花园)","type":"","location":{"lng":"106.523732","lat":"29.53979"},"principal":"","shareholder":[],"url":[],"phone":[],"baiduad":{},"news":{},"putian":{},"comments":{},"note":""},{"dataversion":"draft1","created":1463618411,"id":"74b00b95-9027-4a9b-9dc2-fc116066b536","USID":"","name":"深圳仁爱医院","city":"深圳","province":"广东","address":"金地四路2号仁爱医院内","type":"","location":{"lng":"114.041211","lat":"22.520267"},"principal":"","shareholder":[],"url":[],"phone":[],"baiduad":{},"news":{},"putian":{},"comments":{},"note":""},{"dataversion":"draft1","created":1463531060,"id":"7a14b713-244f-4a08-a75a-e33d71b7bacd","USID":"","name":"重庆都市丽人医院","city":"重庆","province":"重庆","address":"松石北路58号","type":"","location":{"lng":"106.505648","lat":"29.583642"},"principal":"","shareholder":[],"url":[],"phone":[],"baiduad":{},"news":{},"putian":{},"comments":{},"note":""},{"dataversion":"draft1","created":1463618411,"id":"7aef7070-4ce2-4ec4-8ffb-777c0c92e28e","USID":"","name":"东莞东方泌尿专科医院","city":"东莞","province":"广东","address":"东城中路与东纵大道交汇处(大地大厦对面)","type":"","location":{"lng":"113.778713","lat":"23.040823"},"principal":"","shareholder":[],"url":[],"phone":[],"baiduad":{},"news":{},"putian":{},"comments":{},"note":""},{"dataversion":"draft1","created":1463618411,"id":"7aefdaac-ffed-40c6-b7cc-56591802104f","USID":"","name":"深圳健安医院","city":"深圳","province":"广东","address":"沙吓工业区169号","type":"","location":{"lng":"114.038012","lat":"22.629059"},"principal":"","shareholder":[],"url":[],"phone":[],"baiduad":{},"news":{},"putian":{},"comments":{},"note":""},{"dataversion":"draft1","created":1463553605,"updated":1463553605,"id":"7c9b4fd8-ab90-46e4-9bdd-bd98515c4564","USID":"913101057714963903","name":"上海西郊骨科医院","city":"上海","province":"上海","address":"上海市长宁区剑河路595号","type":"民营医院","location":{"lat":"31.207684","lng":"121.368684"},"principal":"詹开林","shareholder":["黄清冰","上海国济投资有限公司","黄开添","詹开林"],"url":["http://www.sdaj.net/","http://www.gb5u.com/","http://www.gkyy120.com/","http://www.cqgkzj.com/"],"phone":["021-52208866","136-5172-4016"],"baiduad":{},"news":{"evidence":[{"url":"http://tech.qq.com/a/20160501/017681.htm","title":"腾讯科技","snapshot":"http://webcache.googleusercontent.com/search?ion=1&sourceid=chrome-psyapi2&q=cache%3A%2F%2Ftech.qq.com%2Fa%2F20160501%2F017681.htm&oq=cache%3A%2F%2Ftech.qq.com%2Fa%2F20160501%2F017681.htm&rlz=1C5CHFA_enUS659US659&ie=UTF-8&aqs=chrome..69i57j69i58j69i60l3.6201j0j7&bav=on.2,or.r_cp.&bvm=bv.122448493,d.cGc&biw=1438&bih=715&dpr=2&ech=1&psi=1OQ7V-vcN47YjwPHgpSACA.1463542998782.3&ei=1OQ7V-vcN47YjwPHgpSACA&emsg=NCSR&noj=1","dateline":"GithubOpenPowerProgrammer, OpenPower, 2016-05-18T06:36:43.290Z - "},{"url":"http://bbs.tianya.cn/post-837-119447-1.shtml","title":"天涯论坛","snapshot":"http://webcache.googleusercontent.com/search?q=cache%3A%2F%2Fbbs.tianya.cn%2Fpost-837-119447-1.shtml&rlz=1C5CHFA_enUS659US659&oq=cache%3A%2F%2Fbbs.tianya.cn%2Fpost-837-119447-1.shtml&aqs=chrome..69i57j69i58.2661j0j4&sourceid=chrome&ie=UTF-8","dateline":"GithubOpenPowerProgrammer, OpenPower, 2016-05-18T06:36:43.290Z - "},{"url":"http://bbs.tianya.cn/post-news-330560-1.shtml","title":"天涯论坛","snapshot":"http://webcache.googleusercontent.com/search?q=cache%3A%2F%2Fbbs.tianya.cn%2Fpost-news-330560-1.shtml&rlz=1C5CHFA_enUS659US659&oq=cache%3A%2F%2Fbbs.tianya.cn%2Fpost-news-330560-1.shtml&aqs=chrome..69i57j69i58.1935j0j4&sourceid=chrome&ie=UTF-8","dateline":"GithubOpenPowerProgrammer, OpenPower, 2016-05-18T06:36:43.290Z - "}]},"putian":{"confirm":"Yes","evidence":[{"url":"https://zh.wikipedia.org/wiki/%E8%8E%86%E7%94%B0%E7%B3%BB","title":"维基百科","snapshot":"https://zh.wikipedia.org/wiki/%E8%8E%86%E7%94%B0%E7%B3%BB","dateline":"GithubOpenPowerProgrammer, OpenPower, 2016-05-18T06:35:46.046Z - "}]},"comments":{"evidence":[{"url":"http://www.315djw.com/tousujubao/7939.html","title":"全国打假网","snapshot":"http://webcache.googleusercontent.com/search?q=cache%3A%2F%2Fwww.315djw.com%2Ftousujubao%2F7939.html&rlz=1C5CHFA_enUS659US659&oq=cache%3A%2F%2Fwww.315djw.com%2Ftousujubao%2F7939.html&aqs=chrome..69i57j69i58.2406j0j4&sourceid=chrome&ie=UTF-8","dateline":"GithubOpenPowerProgrammer, OpenPower, 2016-05-18T06:38:22.920Z - "}]},"note":""},{"dataversion":"draft1","created":1463561429,"updated":1463561429,"id":"7ca7f094-5307-4c3e-95cf-c66af7796507","USID":"91310105777139108U","name":"上海天大医疗美容医院","city":"上海","province":"上海","address":"上海市长宁区中山西路339号","type":"民营医院","location":{"lat":"31.216141","lng":"121.411481"},"principal":"林志忠","shareholder":["上海仁爱投资管理有限公司","上海沪申五官科医院有限公司"],"url":["http://www.tida.sh.cn/","http://www.tida120.com/","http://www.tdzxyy.com/"],"phone":["021-64080808","400-0139-399"],"baiduad":{},"news":{"evidence":[{"url":"http://tech.qq.com/a/20160501/017681.htm","title":"腾讯科技","snapshot":"http://webcache.googleusercontent.com/search?ion=1&sourceid=chrome-psyapi2&q=cache%3A%2F%2Ftech.qq.com%2Fa%2F20160501%2F017681.htm&oq=cache%3A%2F%2Ftech.qq.com%2Fa%2F20160501%2F017681.htm&rlz=1C5CHFA_enUS659US659&ie=UTF-8&aqs=chrome..69i57j69i58j69i60l3.6201j0j7&bav=on.2,or.r_cp.&bvm=bv.122448493,d.cGc&biw=1438&bih=715&dpr=2&ech=1&psi=1OQ7V-vcN47YjwPHgpSACA.1463542998782.3&ei=1OQ7V-vcN47YjwPHgpSACA&emsg=NCSR&noj=1","dateline":"GithubOpenPowerProgrammer, OpenPower, 2016-05-18T08:44:28.010Z - "}]},"putian":{"confirm":"Yes","evidence":[{"url":"https://zh.wikipedia.org/wiki/%E8%8E%86%E7%94%B0%E7%B3%BB","title":"维基百科","snapshot":"https://zh.wikipedia.org/wiki/%E8%8E%86%E7%94%B0%E7%B3%BB","dateline":"GithubOpenPowerProgrammer, OpenPower, 2016-05-18T08:43:44.405Z - "}]},"comments":{"evidence":[{"url":"http://bbs.tianya.cn/post-free-2885207-1.shtml","title":"上海天大医疗美容医院，黑医院，请好心媒体记者和热心网友帮忙","snapshot":"http://bbs.tianya.cn/post-free-2885207-1.shtml","dateline":"GithubOpenPowerProgrammer, OpenPower, 2016-05-18T08:45:55.556Z - "},{"url":"http://www.ca315.com/ts/yaopin/20121129/553712.shtml","title":"上海天大医疗美容医院，背后靠山强大，百姓维权真难","snapshot":"http://webcache.googleusercontent.com/search?q=cache%3A%2F%2Fwww.ca315.com%2Fts%2Fyaopin%2F20121129%2F553712.shtml&rlz=1C5CHFA_enUS659US659&oq=cache%3A%2F%2Fwww.ca315.com%2Fts%2Fyaopin%2F20121129%2F553712.shtml&aqs=chrome..69i57j69i58.1975j0j4&sourceid=chrome&ie=UTF-8","dateline":"GithubOpenPowerProgrammer, OpenPower, 2016-05-18T08:45:55.556Z - "},{"url":"http://www.fchinaw.com/dianying/19981.html","title":"上海天大医疗美容医院被曝收费高没疗效","snapshot":"http://webcache.googleusercontent.com/search?q=cache%3A%2F%2Fwww.fchinaw.com%2Fdianying%2F19981.html&rlz=1C5CHFA_enUS659US659&oq=cache%3A%2F%2Fwww.fchinaw.com%2Fdianying%2F19981.html&aqs=chrome..69i57j69i58.2374j0j4&sourceid=chrome&ie=UTF-8","dateline":"GithubOpenPowerProgrammer, OpenPower, 2016-05-18T08:45:55.556Z - "}]},"note":""},{"dataversion":"draft1","created":1463576983,"id":"7e94f073-59e6-479e-9f42-f59f585c1edc","USID":"","name":"北京圣保罗男子医院","city":"北京","province":"北京","address":null,"type":"","location":"","principal":"","shareholder":[],"url":[],"phone":[],"baiduad":{},"news":{},"putian":{},"comments":{},"note":""},{"dataversion":"draft1","created":1463618411,"id":"803eb4c5-ae25-437e-9c18-fa6cfdd1a307","USID":"","name":"珠海九龙医院","city":"珠海","province":"广东","address":"吉大九洲大道中1004号(吉大农行旁)","type":"","location":{"lng":"113.573690","lat":"22.246692"},"principal":"","shareholder":[],"url":[],"phone":[],"baiduad":{},"news":{},"putian":{},"comments":{},"note":""},{"dataversion":"draft1","created":1463449559,"updated":1463449559,"id":"869afb67-9ae5-42e3-ad71-d9768c9d072a","USID":"9131010178475570XN","name":"上海阿波罗男子医院","city":"上海","province":"上海","address":"上海黄浦区陆家浜路1283号","type":"","location":{"lat":"31.2117873","lng":"121.4845453"},"principal":"栗豪","shareholder":["吴剑煌","陈志强","林国彪"],"url":["http://www.mens120.com/"],"phone":["021-63731722"],"baiduad":{},"news":{"evidence":[{"url":"http://tech.qq.com/a/20160501/017681.htm","title":"腾讯科技","snapshot":"http://webcache.googleusercontent.com/search?ion=1&sourceid=chrome-psyapi2&q=cache%3A%2F%2Ftech.qq.com%2Fa%2F20160501%2F017681.htm&oq=cache%3A%2F%2Ftech.qq.com%2Fa%2F20160501%2F017681.htm&rlz=1C5CHFA_enUS659US659&ie=UTF-8&aqs=chrome..69i57j69i58j69i60l3.7055j0j7&bav=on.2,or.r_cp.&bvm=bv.122129774,d.cGc&biw=1438&bih=711&dpr=2&ech=1&psi=-m86V5rwBI2ujwPSgYS4Bg.1463447549083.3&ei=-m86V5rwBI2ujwPSgYS4Bg&emsg=NCSR&noj=1","dateline":"GithubOpenPowerProgrammer, OpenPower, 2016-05-17T01:41:41.217Z - "}]},"putian":{"confirm":"Yes","evidence":[{"url":"https://zh.wikipedia.org/wiki/%E8%8E%86%E7%94%B0%E7%B3%BB","title":"维基百科","snapshot":"https://zh.wikipedia.org/wiki/%E8%8E%86%E7%94%B0%E7%B3%BB","dateline":"GithubOpenPowerProgrammer, OpenPower, 2016-05-17T01:41:02.844Z - "}]},"comments":{"evidence":[{"url":"http://qiye.zhujiangw.cn/weiquanshikong/jizhediaocha/1326700732.html","title":"上海阿波罗男子医院黑医院","snapshot":"http://webcache.googleusercontent.com/search?q=cache%3A%2F%2Fqiye.zhujiangw.cn%2Fweiquanshikong%2Fjizhediaocha%2F1326700732.html&rlz=1C5CHFA_enUS659US659&oq=cache%3A%2F%2Fqiye.zhujiangw.cn%2Fweiquanshikong%2Fjizhediaocha%2F1326700732.html&aqs=chrome..69i57j69i58.6426j0j4&sourceid=chrome&ie=UTF-8","dateline":"GithubOpenPowerProgrammer, OpenPower, 2016-05-17T01:44:46.813Z - "},{"url":"http://www.gzeveningpaperi.com/2/4/107462.html","title":"上海阿波罗男子医院是黑医院3天6000黑医院 骗子医院","snapshot":"http://webcache.googleusercontent.com/search?q=cache%3A%2F%2Fwww.gzeveningpaperi.com%2F2%2F4%2F107462.html&rlz=1C5CHFA_enUS659US659&oq=cache%3A%2F%2Fwww.gzeveningpaperi.com%2F2%2F4%2F107462.html&aqs=chrome..69i57j69i58.7663j0j4&sourceid=chrome&ie=UTF-8","dateline":"GithubOpenPowerProgrammer, OpenPower, 2016-05-17T01:44:46.813Z - "},{"url":"http://www.heblife.com/thread-12656-1-1.html","title":"上海阿波罗医院怎么样?网友多起投诉小病大治","snapshot":"http://webcache.googleusercontent.com/search?q=cache%3A%2F%2Fwww.heblife.com%2Fthread-12656-1-1.html&rlz=1C5CHFA_enUS659US659&oq=cache%3A%2F%2Fwww.heblife.com%2Fthread-12656-1-1.html&aqs=chrome..69i57j69i58.2190j0j4&sourceid=chrome&ie=UTF-8","dateline":"GithubOpenPowerProgrammer, OpenPower, 2016-05-17T01:44:46.813Z - "}]},"note":""},{"dataversion":"draft1","created":1463618411,"id":"8b92b6cf-d7cb-4103-afeb-35ff343fc096","USID":"","name":"番禺玛莉亚肛肠医院","city":"广州","province":"广东","address":"桥兴大道308号","type":"","location":{"lng":"113.354930","lat":"22.958989"},"principal":"","shareholder":[],"url":[],"phone":[],"baiduad":{},"news":{},"putian":{},"comments":{},"note":""},{"dataversion":"draft1","created":1463529389,"id":"8ced8236-ffaf-48d9-a287-8b268a4376d2","USID":"","name":"成都九龙医院","city":"成都","province":"四川","address":"万和路40号(九龙微创楼)","type":"","location":{"lng":"104.060547","lat":"30.673341"},"principal":"","shareholder":[],"url":[],"phone":[],"baiduad":{},"news":{},"putian":{},"comments":{},"note":""},{"dataversion":"draft1","created":1462892847,"updated":1462892847,"id":"8d8e6377-b7d5-4432-878c-414540298b5c","USID":"913101147465072896","name":"上海中亚医院","city":"上海","province":"上海","address":"上海市嘉定区嘉定镇嘉丰路35号","type":"民营医院","location":{"lat":"31.373032","lng":"121.2351832"},"principal":"李金同","shareholder":["李金山","李金同","上海美中安和医疗控股（集团）有限公司"],"url":["http://www.bhjchouse.com/"],"phone":["400-8251-666"],"baiduad":{},"news":{"evidence":[{"url":"http://tech.qq.com/a/20160501/017681.htm","title":"腾讯科技","snapshot":"http://webcache.googleusercontent.com/search?q=cache%3A%2F%2Ftech.qq.com%2Fa%2F20160501%2F017681.htm&rlz=1C5CHFA_enUS659US659&oq=cache%3A%2F%2Ftech.qq.com%2Fa%2F20160501%2F017681.htm&aqs=chrome..69i57j69i58j69i60.6766j0j7&sourceid=chrome&ie=UTF-8","dateline":"GithubOpenPowerProgrammer, OpenPower, 2016-05-10T15:03:43.562Z - "}]},"putian":{"confirm":"Yes","evidence":[{"url":"https://zh.wikipedia.org/wiki/%E8%8E%86%E7%94%B0%E7%B3%BB","title":"基维百科","snapshot":"https://zh.wikipedia.org/wiki/%E8%8E%86%E7%94%B0%E7%B3%BB","dateline":"GithubOpenPowerProgrammer, OpenPower, 2016-05-10T15:03:11.946Z - "}]},"comments":{"evidence":[{"url":"","title":"","snapshot":"","dateline":""}]},"note":""},{"dataversion":"draft1","created":1463531060,"id":"8dfee5c6-60f3-4a6c-a1d6-923767b5c027","USID":"","name":"重庆市爱德华医院","city":"重庆","province":"重庆","address":"天陈路27号","type":"","location":{"lng":"106.459144","lat":"29.552898"},"principal":"","shareholder":[],"url":[],"phone":[],"baiduad":{},"news":{},"putian":{},"comments":{},"note":""},{"dataversion":"draft1","created":1463618411,"id":"8f273e77-e307-4c21-be5c-b2dbf55e6dd2","USID":"","name":"东莞康桥妇科医院","city":"东莞","province":"广东","address":"鸿福西路天诚康桥华苑2层","type":"","location":{"lng":"113.737671","lat":"23.017933"},"principal":"","shareholder":[],"url":[],"phone":[],"baiduad":{},"news":{},"putian":{},"comments":{},"note":""},{"dataversion":"draft1","created":1463576983,"id":"8fb46713-e193-43cd-9f60-5845ebe89aab","USID":"","name":"北京军都医院","city":"北京","province":"北京","address":"德胜门外黄寺大街乙25号","type":"","location":{"lng":"116.382538","lat":"39.96312"},"principal":"","shareholder":[],"url":[],"phone":[],"baiduad":{},"news":{},"putian":{},"comments":{},"note":""},{"dataversion":"draft1","created":1463405427,"updated":1463405427,"id":"904fb693-4873-4453-ad53-7a9bcfbd1d27","USID":"91510100394098855D","name":"成都圣贝牙科医院","city":"成都","province":"四川","address":"桂溪西街60号","type":"民营医院","principal":"陈新贤","shareholder":["陈新贤"],"url":[""],"phone":[""],"baiduad":{},"news":{"evidence":[{"url":"","title":"","snapshot":"","dateline":""}]},"putian":{"confirm":"Yes","evidence":[{"url":"http://fj.sina.com.cn/zt/shlxxl07/","title":"陈新贤：\"老\"莆医新征程","snapshot":"http://i.imgur.com/OBIujWr.png","dateline":""}]},"comments":{"evidence":[{"url":"","title":"","snapshot":"","dateline":""}]},"note":"","location":{"lng":"104.079056","lat":"30.601543"}},{"dataversion":"draft1","created":1463531060,"id":"90cc381b-1662-4896-a947-997c9ce78c13","USID":"","name":"重庆坤如玛丽医院","city":"重庆","province":"重庆","address":"红锦大道20号","type":"","location":{"lng":"106.525906","lat":"29.587845"},"principal":"","shareholder":[],"url":[],"phone":[],"baiduad":{},"news":{},"putian":{},"comments":{},"note":""},{"dataversion":"draft1","created":1463618411,"id":"911371b8-fa68-4d7b-b3bd-2c567bf7293c","USID":"","name":"深圳福华中西医结合医院","city":"深圳","province":"广东","address":"福华路3号","type":"","location":{"lng":"114.084298","lat":"22.537469"},"principal":"","shareholder":[],"url":[],"phone":[],"baiduad":{},"news":{},"putian":{},"comments":{},"note":""},{"dataversion":"draft1","created":1463405898,"updated":1463405898,"id":"9308f58f-5311-4a82-9719-94dc969e7ba9","USID":"","name":"成都曙光男科医院","city":"成都","province":"四川","address":"青羊横街15号","type":"民营医院","principal":"","shareholder":[""],"url":["http://www.82866666.com/"],"phone":["028-87799345"],"baiduad":{},"news":{"evidence":[{"url":"","title":"","snapshot":"","dateline":""}]},"putian":{},"comments":{"evidence":[{"url":"","title":"","snapshot":"","dateline":""}]},"note":"","location":{"lng":"104.040371","lat":"30.658861"}},{"dataversion":"draft1","created":1462891002,"updated":1462891002,"id":"93ba05a8-2157-46c9-a5b3-faf8a7630e83","USID":"","name":"上海曙康口腔医院","city":"上海","province":"上海","address":"上海市卢湾区普安路185号","type":"","location":{"lat":"31.222935","lng":"121.4764833"},"principal":"","shareholder":[""],"url":[""],"phone":[""],"baiduad":{},"news":{"evidence":[{"url":"","title":"","snapshot":"","dateline":""}]},"putian":{"confirm":"Yes","evidence":[{"url":"http://tech.qq.com/a/20160501/017681.htm","title":"腾讯科技","snapshot":"http://webcache.googleusercontent.com/search?sourceid=chrome-psyapi2&ion=1&espv=2&ie=UTF-8&q=cache%3A%2F%2Ftech.qq.com%2Fa%2F20160501%2F017681.htm&oq=cache%3A%2F%2Ftech.qq.com%2Fa%2F20160501%2F017681.htm&rlz=1C5CHFA_enUS659US659&aqs=chrome..69i57j69i58.8786j0j4","dateline":"GithubOpenPowerProgrammer, OpenPower, 2016-05-10T14:36:21.760Z - "}]},"comments":{"evidence":[{"url":"","title":"","snapshot":"","dateline":""}]},"note":""},{"dataversion":"draft1","created":1463618411,"id":"9474a47b-65ce-42dc-9ba8-7f97452a247d","USID":"","name":"广州458医院","city":"广州","province":"广东","address":"东风东路801号","type":"","location":{"lng":"113.313292","lat":"23.131926"},"principal":"","shareholder":[],"url":[],"phone":[],"baiduad":{},"news":{},"putian":{},"comments":{},"note":""},{"dataversion":"draft1","created":1463576983,"id":"9511bbeb-2b8a-423d-bd4f-f5cafa17d0ca","USID":"","name":"北京五洲女子医院","city":"北京","province":"北京","address":"西大望路24号(近广渠路)","type":"","location":{"lng":"116.476819","lat":"39.892005"},"principal":"","shareholder":[],"url":[],"phone":[],"baiduad":{},"news":{},"putian":{},"comments":{},"note":""},{"dataversion":"draft1","created":1463529389,"id":"97a3c650-65a6-4123-b84b-6e485067956d","USID":"","name":"成都欧亚男科医院","city":"成都","province":"四川","address":"一环路西一段161号附8号","type":"","location":{"lng":"104.041173","lat":"30.653569"},"principal":"","shareholder":[],"url":[],"phone":[],"baiduad":{},"news":{},"putian":{},"comments":{},"note":""},{"dataversion":"draft1","created":1463529389,"id":"97eb896d-e0a5-4d3e-bbc4-824f0bbda6ef","USID":"","name":"成都博大男科医院","city":"成都","province":"四川","address":"逸都路1号附16号(伊藤洋华堂对面)","type":"","location":{"lng":"104.021021","lat":"30.644506"},"principal":"","shareholder":[],"url":[],"phone":[],"baiduad":{},"news":{},"putian":{},"comments":{},"note":""},{"dataversion":"draft1","created":1463618411,"id":"994d18d5-8f73-44ce-9126-fb65f9bb5b51","USID":"","name":"深圳曙光医院","city":"深圳","province":"广东","address":"红宝路38号","type":"","location":{"lng":"114.107701","lat":"22.546976"},"principal":"","shareholder":[],"url":[],"phone":[],"baiduad":{},"news":{},"putian":{},"comments":{},"note":""},{"dataversion":"draft1","created":1463576983,"id":"996a7a1d-6bd8-4e28-b7eb-8839fcda03f4","USID":"","name":"北京玛丽妇婴医院","city":"北京","province":"北京","address":"和平里北街5号北京玛丽妇婴医院(北京地铁13号线柳芳站)","type":"","location":{"lng":"116.431","lat":"39.959839"},"principal":"","shareholder":[],"url":[],"phone":[],"baiduad":{},"news":{},"putian":{},"comments":{},"note":""},{"dataversion":"draft1","created":1463551836,"updated":1463551836,"id":"9ba56ef8-b53e-48e3-9063-084a02414e4d","USID":"310115000827762","name":"上海南浦妇科医院","city":"上海","province":"上海","address":"上海市浦东新区浦东南路2250号（南浦大桥下）","type":"民营医院","location":{"lat":"31.2050135","lng":"121.5139433"},"principal":"黄开山","shareholder":["柯元芳","詹嘉豪","黄开添"],"url":["http://www.nanpuyy.com/","http://www.brandv.org/","http://www.fyjx.org/","http://www.fdfzxy.org/","http://www.acgene.org/","http://www.nanpu120.com/","http://m.up54.com/","http://www.rzjfk.com/","http://yyk.qqyy.com/h14964/"],"phone":["021-58891199","158-2160-8827"],"baiduad":{},"news":{"evidence":[{"url":"http://tech.qq.com/a/20160501/017681.htm","title":"腾讯科技","snapshot":"http://webcache.googleusercontent.com/search?ion=1&sourceid=chrome-psyapi2&q=cache%3A%2F%2Ftech.qq.com%2Fa%2F20160501%2F017681.htm&oq=cache%3A%2F%2Ftech.qq.com%2Fa%2F20160501%2F017681.htm&rlz=1C5CHFA_enUS659US659&ie=UTF-8&aqs=chrome..69i57j69i58j69i60l3.6201j0j7&bav=on.2,or.r_cp.&bvm=bv.122448493,d.cGc&biw=1438&bih=715&dpr=2&ech=1&psi=1OQ7V-vcN47YjwPHgpSACA.1463542998782.3&ei=1OQ7V-vcN47YjwPHgpSACA&emsg=NCSR&noj=1","dateline":"GithubOpenPowerProgrammer, OpenPower, 2016-05-18T05:58:26.982Z - "},{"url":"http://news.bandao.cn/news_uhtml/201312/unews_20131215_29947.shtml","title":"上海南浦妇科医院是大骗子！谋财害命","snapshot":"http://webcache.googleusercontent.com/search?q=cache%3A%2F%2Fnews.bandao.cn%2Fnews_uhtml%2F201312%2Funews_20131215_29947.shtml&rlz=1C5CHFA_enUS659US659&oq=cache%3A%2F%2Fnews.bandao.cn%2Fnews_uhtml%2F201312%2Funews_20131215_29947.shtml&aqs=chrome..69i57j69i58.3414j0j4&sourceid=chrome&ie=UTF-8","dateline":"GithubOpenPowerProgrammer, OpenPower, 2016-05-18T05:58:26.982Z - "},{"url":"http://xiaofei.china.com.cn/news/info-1-9-147571.html","title":"上海南浦妇科医院患者家属索赔150万，律师怎么看？","snapshot":"http://webcache.googleusercontent.com/search?q=cache%3A%2F%2Fxiaofei.china.com.cn%2Fnews%2Finfo-1-9-147571.html&rlz=1C5CHFA_enUS659US659&oq=cache%3A%2F%2Fxiaofei.china.com.cn%2Fnews%2Finfo-1-9-147571.html&aqs=chrome..69i57j69i58.2247j0j4&sourceid=chrome&ie=UTF-8","dateline":"GithubOpenPowerProgrammer, OpenPower, 2016-05-18T05:58:26.982Z - "},{"url":"http://www.redsh.com/ppnews/20110112/171558.shtml","title":"宏康医院、华美等违法医疗广告上黑榜","snapshot":"http://www.redsh.com/ppnews/20110112/171558.shtml","dateline":"GithubOpenPowerProgrammer, OpenPower, 2016-05-18T05:58:26.982Z - "},{"url":"http://www.ndidu.com/zixunguanzhu/minshengguanzhu/jiankangyiyao/2016-03-30/15909.html","title":"上海南浦妇科医院骗子坑人更黑垃圾医院没一点医德畜牲","snapshot":"http://webcache.googleusercontent.com/search?q=cache%3A%2F%2Fwww.ndidu.com%2Fzixunguanzhu%2Fminshengguanzhu%2Fjiankangyiyao%2F2016-03-30%2F15909.html&rlz=1C5CHFA_enUS659US659&oq=cache%3A%2F%2Fwww.ndidu.com%2Fzixunguanzhu%2Fminshengguanzhu%2Fjiankangyiyao%2F2016-03-30%2F15909.html&aqs=chrome..69i57j69i58.2157j0j4&sourceid=chrome&ie=UTF-8","dateline":"GithubOpenPowerProgrammer, OpenPower, 2016-05-18T05:58:26.982Z - "},{"url":"http://news.sina.com.cn/s/wh/2015-10-16/doc-ifxivscc0075031.shtml","title":"新浪新闻(女子手术过程中死亡 家属称手术同意书遭冒签)","snapshot":"http://webcache.googleusercontent.com/search?q=cache%3A%2F%2Fnews.sina.com.cn%2Fs%2Fwh%2F2015-10-16%2Fdoc-ifxivscc0075031.shtml&rlz=1C5CHFA_enUS659US659&oq=cache%3A%2F%2Fnews.sina.com.cn%2Fs%2Fwh%2F2015-10-16%2Fdoc-ifxivscc0075031.shtml&aqs=chrome..69i57j69i58.1982j0j4&sourceid=chrome&ie=UTF-8","dateline":"GithubOpenPowerProgrammer, OpenPower, 2016-05-18T05:58:26.982Z - "},{"url":"http://www.sh.xinhuanet.com/2006-10/17/content_8279273.htm","title":"新华网(南浦妇科医院狮子大开口 治贫血:3000元)","snapshot":"http://www.sh.xinhuanet.com/2006-10/17/content_8279273.htm","dateline":"GithubOpenPowerProgrammer, OpenPower, 2016-05-18T05:58:26.982Z - "}]},"putian":{"confirm":"Yes","evidence":[{"url":"https://zh.wikipedia.org/wiki/%E8%8E%86%E7%94%B0%E7%B3%BB","title":"维基百科","snapshot":"https://zh.wikipedia.org/wiki/%E8%8E%86%E7%94%B0%E7%B3%BB","dateline":"GithubOpenPowerProgrammer, OpenPower, 2016-05-18T05:56:58.264Z - "}]},"comments":{"evidence":[{"url":"http://www.xinshicy.com/bg/436.html","title":"新事网","snapshot":"http://webcache.googleusercontent.com/search?q=cache%3A%2F%2Fwww.xinshicy.com%2Fbg%2F436.html&rlz=1C5CHFA_enUS659US659&oq=cache%3A%2F%2Fwww.xinshicy.com%2Fbg%2F436.html&aqs=chrome..69i57j69i58.2382j0j4&sourceid=chrome&ie=UTF-8","dateline":"GithubOpenPowerProgrammer, OpenPower, 2016-05-18T06:02:40.839Z - "},{"url":"http://www.yaoxunbao.com/hongren/20498.html","title":"药讯网","snapshot":"http://webcache.googleusercontent.com/search?q=cache%3A%2F%2Fwww.yaoxunbao.com%2Fhongren%2F20498.html&rlz=1C5CHFA_enUS659US659&oq=cache%3A%2F%2Fwww.yaoxunbao.com%2Fhongren%2F20498.html&aqs=chrome..69i57j69i58.2183j0j4&sourceid=chrome&ie=UTF-8","dateline":"GithubOpenPowerProgrammer, OpenPower, 2016-05-18T06:02:40.839Z - "},{"url":"http://xo7788.com/tsbg/2016/0405/9780.html","title":"上海南浦妇科医院是大骗子！谋财害命","snapshot":"http://webcache.googleusercontent.com/search?q=cache%3A%2F%2Fxo7788.com%2Ftsbg%2F2016%2F0405%2F9780.html&rlz=1C5CHFA_enUS659US659&oq=cache%3A%2F%2Fxo7788.com%2Ftsbg%2F2016%2F0405%2F9780.html&aqs=chrome..69i57j69i58.2118j0j4&sourceid=chrome&ie=UTF-8","dateline":"GithubOpenPowerProgrammer, OpenPower, 2016-05-18T05:58:26.982Z - "},{"url":"http://ts.voc.com.cn/question/view/332650.html","title":"投诉主题：上海南浦妇科医院王桂兰无医德 不配当医生","snapshot":"http://webcache.googleusercontent.com/search?q=cache%3A%2F%2Fts.voc.com.cn%2Fquestion%2Fview%2F332650.html&rlz=1C5CHFA_enUS659US659&oq=cache%3A%2F%2Fts.voc.com.cn%2Fquestion%2Fview%2F332650.html&aqs=chrome..69i57j69i58j69i60l2.2214j0j4&sourceid=chrome&ie=UTF-8","dateline":"GithubOpenPowerProgrammer, OpenPower, 2016-05-18T05:58:26.982Z - "},{"url":"http://bbs.tianya.cn/post-828-784859-1.shtml","title":"天涯论坛","snapshot":"http://webcache.googleusercontent.com/search?q=cache%3A%2F%2Fbbs.tianya.cn%2Fpost-828-784859-1.shtml&rlz=1C5CHFA_enUS659US659&oq=cache%3A%2F%2Fbbs.tianya.cn%2Fpost-828-784859-1.shtml&aqs=chrome..69i57j69i58.2503j0j4&sourceid=chrome&ie=UTF-8","dateline":"GithubOpenPowerProgrammer, OpenPower, 2016-05-18T05:58:26.982Z - "},{"url":"http://bbs.tianya.cn/post-828-379365-1.shtml","title":"天涯论坛(上海妇科医院，骗人的医院啊)","snapshot":"http://webcache.googleusercontent.com/search?q=cache%3A%2F%2Fbbs.tianya.cn%2Fpost-828-379365-1.shtml&rlz=1C5CHFA_enUS659US659&oq=cache%3A%2F%2Fbbs.tianya.cn%2Fpost-828-379365-1.shtml&aqs=chrome..69i57j69i58.6500j0j4&sourceid=chrome&ie=UTF-8","dateline":"GithubOpenPowerProgrammer, OpenPower, 2016-05-18T05:58:26.982Z - "}]},"note":""},{"dataversion":"draft1","created":1463618411,"id":"9cb23e1e-cd29-4faf-9f8c-239dc9fa4f78","USID":"","name":"广州华美美莱整形医院","city":"广州","province":"广东","address":null,"type":"","location":"","principal":"","shareholder":[],"url":[],"phone":[],"baiduad":{},"news":{},"putian":{},"comments":{},"note":""},{"dataversion":"draft1","created":1463618411,"id":"9cdc6a3a-57c9-4871-b104-ed393e2e47b6","USID":"","name":"珠海阳光医院","city":"珠海","province":"广东","address":"吉大九洲大道东1118号","type":"","location":{"lng":"113.587075","lat":"22.249431"},"principal":"","shareholder":[],"url":[],"phone":[],"baiduad":{},"news":{},"putian":{},"comments":{},"note":""},{"dataversion":"draft1","created":1462834738,"updated":1462834738,"id":"9f188d46-f9e3-4681-bf1f-3592c58e3435","USID":"3102262054792","name":"上海安真医院 口腔科 / 上海旭邦医院投资管理有限公司","city":"上海","province":"上海","address":"上海市松江区人民南路39号","type":"外包科室","location":{"lat":"31.003154","lng":"121.229016"},"principal":"李劲松","shareholder":["吕刚","李劲松"],"url":["http://xubang.fnkq.com/"],"phone":[""],"baiduad":{},"news":{"evidence":[{"url":"","title":"","snapshot":"","dateline":""}]},"putian":{},"comments":{"evidence":[{"url":"","title":"","snapshot":"","dateline":""}]},"note":"工商局信息显示上海旭邦医院投资管理有限公司状态为 吊销，未注销状态。安真医院无网站，旭邦医院网站数年未更新。和莆田系关系不明。"},{"dataversion":"draft1","created":1463618411,"id":"9ffd3f37-6175-44c3-992b-b0e491858ed3","USID":"","name":"肇庆福康医院","city":"肇庆","province":"广东","address":"前进北路1号(武警支队旁)","type":"","location":{"lng":"112.491986","lat":"23.055980"},"principal":"","shareholder":[],"url":[],"phone":[],"baiduad":{},"news":{},"putian":{},"comments":{},"note":""},{"dataversion":"draft1","created":1463529389,"id":"a0c104a0-205c-4e4f-a6ea-65e86cb77192","USID":"","name":"成都喜得儿不孕不育医院","city":"成都","province":"四川","address":"永康路199号","type":"","location":{"lng":"103.975152","lat":"30.643816"},"principal":"","shareholder":[],"url":[],"phone":[],"baiduad":{},"news":{},"putian":{},"comments":{},"note":""},{"dataversion":"draft1","created":1463576983,"id":"a260939a-a7f1-4551-977b-493bd142c4b3","USID":"","name":"北京瑞京糖尿病医院","city":"北京","province":"北京","address":"石榴庄南里15号","type":"","location":{"lng":"116.415146","lat":"39.844383"},"principal":"","shareholder":[],"url":[],"phone":[],"baiduad":{},"news":{},"putian":{},"comments":{},"note":""},{"dataversion":"draft1","created":1463618411,"id":"a32c7c17-d7e1-4dd8-9527-f1814010ffa7","USID":"","name":"广州现代医院","city":"广州","province":"广东","address":"濂泉路42号","type":"","location":{"lng":"113.308579","lat":"23.156888"},"principal":"","shareholder":[],"url":[],"phone":[],"baiduad":{},"news":{},"putian":{},"comments":{},"note":""},{"dataversion":"draft1","created":1463618411,"id":"a335bcdb-3bb6-4da6-8023-985e805fd522","USID":"","name":"中山阳光医院","city":"中山","province":"广东","address":"博爱三路与岐关西路交界处(南下市场对面)","type":"","location":{"lng":"113.378430","lat":"22.503317"},"principal":"","shareholder":[],"url":[],"phone":[],"baiduad":{},"news":{},"putian":{},"comments":{},"note":""},{"dataversion":"draft1","created":1463618411,"id":"a4ec4642-0b12-4337-af94-32af90b319f9","USID":"","name":"广州花都人爱医院","city":"广州","province":"广东","address":"建设北路138号","type":"","location":{"lng":"113.205968","lat":"23.397134"},"principal":"","shareholder":[],"url":[],"phone":[],"baiduad":{},"news":{},"putian":{},"comments":{},"note":""},{"dataversion":"draft1","created":1463391945,"updated":1463391945,"id":"a5126cb9-e278-456d-88f6-cdcc390d2766","USID":"91310115759046813C","name":"上海圣爱医院","city":"上海","province":"上海","address":"上海市浦东新区龙东大道6111号1栋","type":"民营医院","location":{"lat":"31.3720062","lng":"121.2517713"},"principal":"詹加龙","shareholder":["上海爱丽姿医疗美容医院有限公司","陈东海","洪鹭青","詹嘉豪"],"url":["http://www.shsayy.com/"],"phone":["021-69521000"],"baiduad":{},"news":{"evidence":[{"url":"http://tech.qq.com/a/20160501/017681.htm","title":"腾讯科技","snapshot":"http://webcache.googleusercontent.com/search?ion=1&sourceid=chrome-psyapi2&q=cache%3A%2F%2Ftech.qq.com%2Fa%2F20160501%2F017681.htm&oq=cache%3A%2F%2Ftech.qq.com%2Fa%2F20160501%2F017681.htm&rlz=1C5CHFA_enUS659US659&ie=UTF-8&aqs=chrome..69i57j69i58j69i60l3.7735j0j7&bav=on.2,or.r_cp.&bvm=bv.122129774,d.cGc&biw=1438&bih=711&dpr=2&ech=1&psi=qpE5V-LoKczgjwPzjbCoDw.1463390635458.3&ei=qpE5V-LoKczgjwPzjbCoDw&emsg=NCSR&noj=1","dateline":"GithubOpenPowerProgrammer, OpenPower, 2016-05-16T09:38:38.336Z - "}]},"putian":{"confirm":"Yes","evidence":[{"url":"https://zh.wikipedia.org/wiki/%E8%8E%86%E7%94%B0%E7%B3%BB","title":"维基百科","snapshot":"https://zh.wikipedia.org/wiki/%E8%8E%86%E7%94%B0%E7%B3%BB","dateline":"GithubOpenPowerProgrammer, OpenPower, 2016-05-16T09:37:56.478Z - "}]},"comments":{"evidence":[{"url":"http://www.dianping.com/review/205918738","title":"大众点评","snapshot":"http://www.dianping.com/review/205918738","dateline":"GithubOpenPowerProgrammer, OpenPower, 2016-05-16T09:39:08.493Z - "}]},"note":"这个医院可能改名了"},{"dataversion":"draft1","created":1463576983,"id":"a5b2a3ae-e2bc-4354-91ce-2a015df5baa5","USID":"","name":"北京恒安中医院","city":"北京","province":"北京","address":"南磨房路14号院2","type":"","location":{"lng":"116.479124","lat":"39.883613"},"principal":"","shareholder":[],"url":[],"phone":[],"baiduad":{},"news":{},"putian":{},"comments":{},"note":""},{"dataversion":"draft1","created":1462948297,"updated":1462948297,"id":"a8208e04-9d6c-4c87-866f-b3d470de12c0","USID":"","name":"上海博大医院","city":"上海","province":"上海","address":"上海市松江区人民南路（阔街）55号","type":"民营医院","location":{"lat":"31.005725","lng":"121.229828"},"principal":"","shareholder":[""],"url":[""],"phone":[""],"baiduad":{},"news":{"evidence":[{"url":"http://tech.qq.com/a/20160501/017681.htm","title":"腾讯科技","snapshot":"http://webcache.googleusercontent.com/search?q=cache%3A%2F%2Ftech.qq.com%2Fa%2F20160501%2F017681.htm&rlz=1C5CHFA_enUS659US659&oq=cache%3A%2F%2Ftech.qq.com%2Fa%2F20160501%2F017681.htm&aqs=chrome..69i57j69i58j69i60l2.2653j0j4&sourceid=chrome&ie=UTF-8","dateline":"GithubOpenPowerProgrammer, OpenPower, 2016-05-11T06:18:20.131Z - "}]},"putian":{"confirm":"Yes","evidence":[{"url":"https://zh.wikipedia.org/wiki/%E8%8E%86%E7%94%B0%E7%B3%BB","title":"维基百科","snapshot":"https://zh.wikipedia.org/wiki/%E8%8E%86%E7%94%B0%E7%B3%BB","dateline":"GithubOpenPowerProgrammer, OpenPower, 2016-05-11T06:18:38.193Z - "}]},"comments":{"evidence":[{"url":"http://bbs.tianya.cn/post-41-1233784-1.shtml","title":"天涯论坛","snapshot":"http://webcache.googleusercontent.com/search?q=cache%3A%2F%2Fbbs.tianya.cn%2Fpost-41-1233784-1.shtml&rlz=1C5CHFA_enUS659US659&oq=cache%3A%2F%2Fbbs.tianya.cn%2Fpost-41-1233784-1.shtml&aqs=chrome..69i57j69i58.2774j0j4&sourceid=chrome&ie=UTF-8","dateline":"GithubOpenPowerProgrammer, OpenPower, 2016-05-11T06:21:50.525Z - "},{"url":"","title":"","snapshot":"","dateline":""}]},"note":""},{"dataversion":"draft1","created":1463529389,"id":"abc3aa89-566e-42e5-8128-8fa1bd2ccb2b","USID":"","name":"四川省生殖健康研究中心附属生殖专科医院","city":"成都","province":"四川","address":"一环路西三段13号","type":"","location":{"lng":"104.040177","lat":"30.670024"},"principal":"","shareholder":[],"url":[],"phone":[],"baiduad":{},"news":{},"putian":{},"comments":{},"note":""},{"dataversion":"draft1","created":1463404792,"updated":1463404792,"id":"abf61573-af56-4a42-81a5-7b3b712841e2","USID":"91510100663030083A","name":"成都安琪儿妇产医院","city":"成都","province":"四川","address":"高攀路3号(毗邻机场路东沿线火车南站东路口)","type":"民营医院","principal":"卓朝阳","shareholder":["成都安琪儿医疗控股有限公司"],"url":[""],"phone":[""],"baiduad":{},"news":{"evidence":[{"url":"","title":"","snapshot":"","dateline":""}]},"putian":{},"comments":{"evidence":[{"url":"","title":"","snapshot":"","dateline":""}]},"note":"","location":{"lng":"104.080446","lat":"30.608089"}},{"dataversion":"draft1","created":1463618411,"id":"ad173d25-571a-4682-ba8e-a3145ac55864","USID":"","name":"广州益寿医院","city":"广州","province":"广东","address":"三元里棠下益寿路68号(近地铁三元里站)","type":"","location":{"lng":"113.249028","lat":"23.171126"},"principal":"","shareholder":[],"url":[],"phone":[],"baiduad":{},"news":{},"putian":{},"comments":{},"note":""},{"dataversion":"draft1","created":1463618411,"id":"ae23cd9a-849d-423b-bfc1-4c25ac6017a0","USID":"","name":"深圳远东妇儿科医院","city":"深圳","province":"广东","address":"深南东路2097号","type":"","location":{"lng":"114.123901","lat":"22.543538"},"principal":"","shareholder":[],"url":[],"phone":[],"baiduad":{},"news":{},"putian":{},"comments":{},"note":""},{"dataversion":"draft1","created":1463404504,"updated":1463404504,"id":"ae86694a-65b4-485c-a165-f1ca9cc4c8b1","USID":"","name":"成都丽人女子医院","city":"成都","province":"四川","address":"人民中路二段43号(远东百货对面)","type":"民营医院","principal":"","shareholder":[""],"url":[""],"phone":["028-86611111"],"baiduad":{},"news":{"evidence":[{"url":"","title":"","snapshot":"","dateline":""}]},"putian":{},"comments":{"evidence":[{"url":"","title":"","snapshot":"","dateline":""}]},"note":"","location":{"lng":"104.066420","lat":"30.669948"}},{"dataversion":"draft1","created":1463040235,"updated":1463040235,"id":"b000beeb-2df3-4cde-aafb-2131fe2356ab","USID":"","name":"上海九州泌尿医院","city":"上海","province":"上海","address":"中国上海市普陀区真南路685号","type":"民营医院","location":{"lat":"31.2693807","lng":"121.3868697"},"principal":"","shareholder":[""],"url":[""],"phone":[""],"baiduad":{},"news":{"evidence":[{"url":"http://www.5h.com/yl/11070.html","title":"5号网","snapshot":"http://webcache.googleusercontent.com/search?q=cache%3A%2F%2Fwww.5h.com%2Fyl%2F11070.html&rlz=1C5CHFA_enUS659US659&oq=cache%3A%2F%2Fwww.5h.com%2Fyl%2F11070.html&aqs=chrome..69i57j69i58.6635j0j7&sourceid=chrome&ie=UTF-8","dateline":"GithubOpenPowerProgrammer, OpenPower, 2016-05-12T07:59:22.798Z - "},{"url":"http://tech.qq.com/a/20160501/017681.htm","title":"腾讯科技","snapshot":"http://webcache.googleusercontent.com/search?q=cache%3A%2F%2Ftech.qq.com%2Fa%2F20160501%2F017681.htm&rlz=1C5CHFA_enUS659US659&oq=cache%3A%2F%2Ftech.qq.com%2Fa%2F20160501%2F017681.htm&aqs=chrome..69i57j69i58j69i60l3.2910j0j4&sourceid=chrome&ie=UTF-8","dateline":"GithubOpenPowerProgrammer, OpenPower, 2016-05-12T07:59:22.798Z - "}]},"putian":{"confirm":"Yes","evidence":[{"url":"https://zh.wikipedia.org/zh/%E8%8E%86%E7%94%B0%E7%B3%BB","title":"维基百科","snapshot":"https://zh.wikipedia.org/zh/%E8%8E%86%E7%94%B0%E7%B3%BB","dateline":"GithubOpenPowerProgrammer, OpenPower, 2016-05-12T07:57:03.146Z - "}]},"comments":{"evidence":[{"url":"http://www.zhinews.com/tousu/20130630_191333.html","title":"云南九州医院的评论","snapshot":"http://www.zhinews.com/tousu/20130630_191333.html","dateline":"GithubOpenPowerProgrammer, OpenPower, 2016-05-12T08:03:20.408Z - "}]},"note":""},{"dataversion":"draft1","created":1463531060,"id":"b28c6069-b548-405b-8389-7620a13f02a8","USID":"","name":"重庆现代女子医院","city":"重庆","province":"重庆","address":"南坪东路8号附5号","type":"","location":{"lng":"106.573004","lat":"29.529203"},"principal":"","shareholder":[],"url":[],"phone":[],"baiduad":{},"news":{},"putian":{},"comments":{},"note":""},{"dataversion":"draft1","created":1463618411,"id":"b291aacc-b3ac-4753-bbee-daa92cf58ab9","USID":"","name":"深圳国瑞泌尿外科医院","city":"深圳","province":"广东","address":"麻磡南路83号","type":"","location":{"lng":"113.950292","lat":"22.632687"},"principal":"","shareholder":[],"url":[],"phone":[],"baiduad":{},"news":{},"putian":{},"comments":{},"note":""},{"dataversion":"draft1","created":1463529389,"id":"b32d270c-7b1d-429f-b191-1e4fe0859ce1","USID":"","name":"四川华美紫馨医学美容医院","city":"成都","province":"四川","address":"二环路南三段25号","type":"","location":{"lng":"104.052246","lat":"30.622997"},"principal":"","shareholder":[],"url":[],"phone":[],"baiduad":{},"news":{},"putian":{},"comments":{},"note":""},{"dataversion":"draft1","created":1463404608,"updated":1463404608,"id":"b4b8c944-4173-47fe-a1bc-835fc58c7f88","USID":"510100000156488","name":"成都博爱医院","city":"成都","province":"四川","address":"大慈寺路1号","type":"民营医院","principal":"游金棋","shareholder":["游金豹","游金棋"],"url":[""],"phone":[""],"baiduad":{},"news":{"evidence":[{"url":"","title":"","snapshot":"","dateline":""}]},"putian":{},"comments":{"evidence":[{"url":"","title":"","snapshot":"","dateline":""}]},"note":"","location":{"lng":"104.087690","lat":"30.653376"}},{"dataversion":"draft1","created":1463618411,"id":"b6882c7a-5f49-4a27-b2ff-d487e0bccedd","USID":"","name":"广州济慈医院","city":"广州","province":"广东","address":"水南大道一路1号","type":"","location":{"lng":"113.555280","lat":"23.104056"},"principal":"","shareholder":[],"url":[],"phone":[],"baiduad":{},"news":{},"putian":{},"comments":{},"note":""},{"dataversion":"draft1","created":1463618411,"id":"b6fd5187-f62b-4206-a956-377ae67c0d5c","USID":"","name":"深圳仁康医院","city":"深圳","province":"广东","address":"草埔吓屋村8号综合楼","type":"","location":{"lng":"114.118218","lat":"22.584808"},"principal":"","shareholder":[],"url":[],"phone":[],"baiduad":{},"news":{},"putian":{},"comments":{},"note":""},{"dataversion":"draft1","created":1463576983,"id":"b8c7702b-628e-4f6f-97a2-f78de8ccf2f7","USID":"","name":"北京北海医院","city":"北京","province":"北京","address":"地安门外大街甲158号","type":"","location":{"lng":"116.396699","lat":"39.935033"},"principal":"","shareholder":[],"url":[],"phone":[],"baiduad":{},"news":{},"putian":{},"comments":{},"note":""},{"dataversion":"draft1","created":1463529389,"id":"b8d7f6cf-1b2e-47d8-8ef5-c2810f5f0430","USID":"","name":"成都中仁泌尿外科医院","city":"成都","province":"四川","address":"一环路东四段79号","type":"","location":{"lng":"104.094648","lat":"30.648127"},"principal":"","shareholder":[],"url":[],"phone":[],"baiduad":{},"news":{},"putian":{},"comments":{},"note":""},{"dataversion":"draft1","created":1463576983,"id":"b99250c4-877d-4256-9034-9589c3835a45","USID":"","name":"北京美联臣医疗美容医院","city":"北京","province":"北京","address":"东三环南路乙52-2号","type":"","location":{"lng":"116.462098","lat":"39.887080"},"principal":"","shareholder":[],"url":[],"phone":[],"baiduad":{},"news":{},"putian":{},"comments":{},"note":""},{"dataversion":"draft1","created":1463618411,"id":"bb6786a8-a610-44ef-8527-003d9cbb1a1a","USID":"","name":"塘厦康桥医院","city":"东莞","province":"广东","address":null,"type":"","location":"","principal":"","shareholder":[],"url":[],"phone":[],"baiduad":{},"news":{},"putian":{},"comments":{},"note":""},{"dataversion":"draft1","created":1463543544,"updated":1463543544,"id":"bbe7d48e-a404-4194-88ef-1fdaf684b605","USID":"91310106751877073M","name":"上海健桥医院","city":"上海","province":"上海","address":"上海闸北区中兴路1122号","type":"民营医院","location":{"lat":"31.2521575","lng":"121.4629991"},"principal":"陈国雄","shareholder":["陈国兴","陈金章"],"url":["http://www.jianqiaohospital.com/"],"phone":["021-56659999"],"baiduad":{},"news":{"evidence":[{"url":"http://tech.qq.com/a/20160501/017681.htm","title":"腾讯科技","snapshot":"http://webcache.googleusercontent.com/search?ion=1&sourceid=chrome-psyapi2&q=cache%3A%2F%2Ftech.qq.com%2Fa%2F20160501%2F017681.htm&oq=cache%3A%2F%2Ftech.qq.com%2Fa%2F20160501%2F017681.htm&rlz=1C5CHFA_enUS659US659&ie=UTF-8&aqs=chrome..69i57j69i58j69i60l3.6201j0j7&bav=on.2,or.r_cp.&bvm=bv.122448493,d.cGc&biw=1438&bih=715&dpr=2&ech=1&psi=1OQ7V-vcN47YjwPHgpSACA.1463542998782.3&ei=1OQ7V-vcN47YjwPHgpSACA&emsg=NCSR&noj=1","dateline":"GithubOpenPowerProgrammer, OpenPower, 2016-05-18T03:43:38.128Z - "}]},"putian":{"confirm":"Yes","evidence":[{"url":"https://zh.wikipedia.org/wiki/%E8%8E%86%E7%94%B0%E7%B3%BB","title":"维基百科","snapshot":"https://zh.wikipedia.org/wiki/%E8%8E%86%E7%94%B0%E7%B3%BB","dateline":"GithubOpenPowerProgrammer, OpenPower, 2016-05-18T03:42:47.475Z - "}]},"comments":{"evidence":[{"url":"http://51jk.c029.com/infoShow_1167_23663.html","title":"51健康之路","snapshot":"http://webcache.googleusercontent.com/search?q=cache%3A%2F%2F51jk.c029.com%2FinfoShow_1167_23663.html&rlz=1C5CHFA_enUS659US659&oq=cache%3A%2F%2F51jk.c029.com%2FinfoShow_1167_23663.html&aqs=chrome..69i57j69i58.2664j0j4&sourceid=chrome&ie=UTF-8","dateline":"GithubOpenPowerProgrammer, OpenPower, 2016-05-18T03:49:40.770Z - "},{"url":"http://www.315rx.com/CompTs_Html/251532R20110720X44.html","title":"315热线","snapshot":"http://www.315rx.com/CompTs_Html/251532R20110720X44.html","dateline":"GithubOpenPowerProgrammer, OpenPower, 2016-05-18T03:49:40.770Z - "},{"url":"http://m.qiangjunshi.com/29/17921.html","title":"社会视野","snapshot":"http://webcache.googleusercontent.com/search?q=cache%3A%2F%2Fm.qiangjunshi.com%2F29%2F17921.html&rlz=1C5CHFA_enUS659US659&oq=cache%3A%2F%2Fm.qiangjunshi.com%2F29%2F17921.html&aqs=chrome..69i57j69i58.2830j0j4&sourceid=chrome&ie=UTF-8","dateline":"GithubOpenPowerProgrammer, OpenPower, 2016-05-18T03:49:40.770Z - "},{"url":"http://www.shupingnet.com/jr/201605/9105.html","title":"评述网","snapshot":"http://webcache.googleusercontent.com/search?q=cache%3A%2F%2Fwww.shupingnet.com%2Fjr%2F201605%2F9105.html&rlz=1C5CHFA_enUS659US659&oq=cache%3A%2F%2Fwww.shupingnet.com%2Fjr%2F201605%2F9105.html&aqs=chrome..69i57j69i58.2407j0j4&sourceid=chrome&ie=UTF-8","dateline":"GithubOpenPowerProgrammer, OpenPower, 2016-05-18T03:49:40.770Z - "},{"url":"http://ctk-ktkv.com/wenzhang/4784","title":"投诉上海健桥医院欺骗患者收取高额医疗费","snapshot":"http://ctk-ktkv.com/wenzhang/4784","dateline":"GithubOpenPowerProgrammer, OpenPower, 2016-05-18T03:49:40.770Z - "}]},"note":""},{"dataversion":"draft1","created":1463576983,"id":"c1d975e7-d69f-4f31-82b0-3c1b4c2647fa","USID":"","name":"北京天伦不孕不育医院","city":"北京","province":"北京","address":"朝阳门南大街12号","type":"","location":{"lng":"116.4357","lat":"39.918447"},"principal":"","shareholder":[],"url":[],"phone":[],"baiduad":{},"news":{},"putian":{},"comments":{},"note":""},{"dataversion":"draft1","created":1462861240,"updated":1462861240,"id":"c2d9990b-4b8f-4222-8793-5b411dc5ed9a","USID":"913101147836498929","name":"上海嘉华医院","city":"上海","province":"上海","address":"中国上海市嘉定区清河路450号","type":"民营医院","location":{"lat":"31.3769217","lng":"121.2317892"},"principal":"王友松","shareholder":["上海华中实业（集团）有限公司","王友松","王志金","王友志","叶彩霞"],"url":["http://www.69916666.com/"],"phone":["400-885-0806"],"baiduad":{},"news":{"evidence":[{"url":"","title":"","snapshot":"","dateline":""}]},"putian":{},"comments":{"evidence":[{"url":"http://wsxf.sh.gov.cn/swldxxnew/feedback_show.aspx?State=C4AD4221A364E620&LetterID=1A3B43FF6400FAA9","title":"前程无忧网站涉嫌虚假信息导致很多人资金损失","snapshot":"http://webcache.googleusercontent.com/search?q=cache%3A%2F%2Fwsxf.sh.gov.cn%2Fswldxxnew%2Ffeedback_show.aspx%3FState%3DC4AD4221A364E620%26LetterID%3D1A3B43FF6400FAA9&rlz=1C5CHFA_enUS659US659&oq=cache%3A%2F%2Fwsxf.sh.gov.cn%2Fswldxxnew%2Ffeedback_show.aspx%3FState%3DC4AD4221A364E620%26LetterID%3D1A3B43FF6400FAA9&aqs=chrome..69i57j69i58.8112j0j7&sourceid=chrome&ie=UTF-8","dateline":"GithubOpenPowerProgrammer, OpenPower, 2016-05-10T06:17:22.796Z - "},{"url":"http://imgur.com/VNaEzRW","title":"前程无忧网站涉嫌虚假信息导致很多人资金损失","snapshot":"http://imgur.com/VNaEzRW","dateline":"GithubOpenPowerProgrammer, OpenPower, 2016-05-10T06:17:22.796Z - "}]},"note":""},{"dataversion":"draft1","created":1463618411,"id":"c31f682e-6bd2-4894-950b-f4c5805aca9a","USID":"","name":"广东民安医院","city":"广州","province":"广东","address":"犀牛路7号","type":"","location":{"lng":"113.296990","lat":"23.132907"},"principal":"","shareholder":[],"url":[],"phone":[],"baiduad":{},"news":{},"putian":{},"comments":{},"note":""},{"dataversion":"draft1","created":1463552854,"updated":1463552854,"id":"c438b799-5494-484b-8a52-5fdf39e270f7","USID":"9131011077577946XD","name":"上海真美妇科医院","city":"上海","province":"上海","address":"上海市杨浦区宁国路313弄263、265、267号1-3层","type":"民营医院","location":{"lat":"31.2648233","lng":"121.5356756"},"principal":"沈雪峰","shareholder":["沈雪峰","卓国勇","黄开飞","吴元良"],"url":["http://www.giivi.com/","http://www.zdia.net/"],"phone":["021-55099999","17091958466"],"baiduad":{},"news":{"evidence":[{"url":"http://tech.qq.com/a/20160501/017681.htm","title":"腾讯科技","snapshot":"http://webcache.googleusercontent.com/search?ion=1&sourceid=chrome-psyapi2&q=cache%3A%2F%2Ftech.qq.com%2Fa%2F20160501%2F017681.htm&oq=cache%3A%2F%2Ftech.qq.com%2Fa%2F20160501%2F017681.htm&rlz=1C5CHFA_enUS659US659&ie=UTF-8&aqs=chrome..69i57j69i58j69i60l3.6201j0j7&bav=on.2,or.r_cp.&bvm=bv.122448493,d.cGc&biw=1438&bih=715&dpr=2&ech=1&psi=1OQ7V-vcN47YjwPHgpSACA.1463542998782.3&ei=1OQ7V-vcN47YjwPHgpSACA&emsg=NCSR&noj=1","dateline":"GithubOpenPowerProgrammer, OpenPower, 2016-05-18T06:21:57.559Z - "},{"url":"http://www.cqn.com.cn/news/wqpd/wqxw/306685.html","title":"上海通报违法发布医疗广告机构 涉及古美医院、宏康医院","snapshot":"http://webcache.googleusercontent.com/search?q=cache%3A%2F%2Fwww.cqn.com.cn%2Fnews%2Fwqpd%2Fwqxw%2F306685.html&rlz=1C5CHFA_enUS659US659&oq=cache%3A%2F%2Fwww.cqn.com.cn%2Fnews%2Fwqpd%2Fwqxw%2F306685.html&aqs=chrome..69i57j69i58.2061j0j4&sourceid=chrome&ie=UTF-8","dateline":"GithubOpenPowerProgrammer, OpenPower, 2016-05-18T06:21:57.559Z - "}]},"putian":{"confirm":"Yes","evidence":[{"url":"https://zh.wikipedia.org/wiki/%E8%8E%86%E7%94%B0%E7%B3%BB","title":"维基百科","snapshot":"https://zh.wikipedia.org/wiki/%E8%8E%86%E7%94%B0%E7%B3%BB","dateline":"GithubOpenPowerProgrammer, OpenPower, 2016-05-18T06:18:28.557Z - "}]},"comments":{"evidence":[{"url":"http://blog.sina.com.cn/s/blog_160c4c8200102w6ep.html","title":"新浪博客(上海真美妇科医院太黑了，骗钱一流，大家别被坑了！)","snapshot":"http://blog.sina.com.cn/s/blog_160c4c8200102w6ep.html","dateline":"GithubOpenPowerProgrammer, OpenPower, 2016-05-18T06:24:29.265Z - "},{"url":"http://www.dianping.com/shop/65613292/review_more","title":"大众点评","snapshot":"http://www.dianping.com/shop/65613292/review_more","dateline":"GithubOpenPowerProgrammer, OpenPower, 2016-05-18T06:24:29.265Z - "},{"url":"http://qiye.zhujiangw.cn/weiquanshikong/jizhediaocha/1327991583.html","title":"上海真美妇科医院是很差的一家私人医院，真...","snapshot":"http://webcache.googleusercontent.com/search?q=cache%3A%2F%2Fqiye.zhujiangw.cn%2Fweiquanshikong%2Fjizhediaocha%2F1327991583.html&rlz=1C5CHFA_enUS659US659&oq=cache%3A%2F%2Fqiye.zhujiangw.cn%2Fweiquanshikong%2Fjizhediaocha%2F1327991583.html&aqs=chrome..69i57j69i58.2807j0j4&sourceid=chrome&ie=UTF-8","dateline":"GithubOpenPowerProgrammer, OpenPower, 2016-05-18T06:24:29.265Z - "},{"url":"http://www.g5k6.com/88127.html","title":"上海真美妇科医院骗子医院欺诈收费","snapshot":"http://www.g5k6.com/88127.html","dateline":"GithubOpenPowerProgrammer, OpenPower, 2016-05-18T06:24:29.265Z - "},{"url":"http://bbs.tianya.cn/post-free-5463486-1.shtml","title":"天涯论坛","snapshot":"http://webcache.googleusercontent.com/search?q=cache%3A%2F%2Fbbs.tianya.cn%2Fpost-free-5463486-1.shtml&rlz=1C5CHFA_enUS659US659&oq=cache%3A%2F%2Fbbs.tianya.cn%2Fpost-free-5463486-1.shtml&aqs=chrome..69i57j69i58.2030j0j4&sourceid=chrome&ie=UTF-8","dateline":"GithubOpenPowerProgrammer, OpenPower, 2016-05-18T06:24:29.265Z - "}]},"note":""},{"dataversion":"draft1","created":1463618411,"id":"c5a47cd7-913a-4e9e-ae5f-024bfe31147b","USID":"","name":"广州远东美容医院","city":"广州","province":"广东","address":"机场西远景路54号","type":"","location":{"lng":"113.257867","lat":"23.172751"},"principal":"","shareholder":[],"url":[],"phone":[],"baiduad":{},"news":{},"putian":{},"comments":{},"note":""},{"dataversion":"draft1","created":1463618411,"id":"c60e9d39-f361-4d87-938a-411b1cf06ffd","USID":"","name":"广州利德医院","city":"广州","province":"广东","address":"横滘大道与西槎路交叉口西北50米","type":"","location":{"lng":"113.236106","lat":"23.174050"},"principal":"","shareholder":[],"url":[],"phone":[],"baiduad":{},"news":{},"putian":{},"comments":{},"note":""},{"dataversion":"draft1","created":1462950261,"updated":1462950261,"id":"c6babf8d-42fd-49b3-8e18-8b5617a46dea","USID":"","name":"上海青城医院","city":"上海","province":"上海","address":"上海市青浦区盈港路468号（世纪联华斜对面）","type":"民营医院","location":{"lat":"31.1598077","lng":"121.1152177"},"principal":"","shareholder":[""],"url":["http://www.021qcyy.com/"],"phone":["400-890-8086"],"baiduad":{},"news":{"evidence":[{"url":"http://tech.qq.com/a/20160501/017681.htm","title":"腾讯科技","snapshot":"http://webcache.googleusercontent.com/search?q=cache%3A%2F%2Ftech.qq.com%2Fa%2F20160501%2F017681.htm&rlz=1C5CHFA_enUS659US659&oq=cache%3A%2F%2Ftech.qq.com%2Fa%2F20160501%2F017681.htm&aqs=chrome..69i57j69i58j69i60l2.2653j0j4&sourceid=chrome&ie=UTF-8","dateline":""}]},"putian":{"confirm":"Yes","evidence":[{"url":"https://zh.wikipedia.org/wiki/%E8%8E%86%E7%94%B0%E7%B3%BB","title":"维基百科","snapshot":"https://zh.wikipedia.org/wiki/%E8%8E%86%E7%94%B0%E7%B3%BB","dateline":"GithubOpenPowerProgrammer, OpenPower, 2016-05-11T06:56:47.757Z - "}]},"comments":{"evidence":[{"url":"http://blog.tianya.cn/m/post.jsp?postId=113199931","title":"上海青城医院怎么样？骗子医院大家别去","snapshot":"http://webcache.googleusercontent.com/search?q=cache%3A%2F%2Fblog.tianya.cn%2Fm%2Fpost.jsp%3FpostId%3D113199931&rlz=1C5CHFA_enUS659US659&oq=cache%3A%2F%2Fblog.tianya.cn%2Fm%2Fpost.jsp%3FpostId%3D113199931&aqs=chrome..69i57j69i58.4232j0j4&sourceid=chrome&ie=UTF-8","dateline":"GithubOpenPowerProgrammer, OpenPower, 2016-05-11T06:59:44.706Z - "},{"url":"http://www.yfr2a.com/19466.html","title":"上海青城医院欺骗的勾当","snapshot":"http://www.yfr2a.com/19466.html","dateline":"GithubOpenPowerProgrammer, OpenPower, 2016-05-11T06:59:44.706Z - "},{"url":"","title":"","snapshot":"","dateline":""}]},"note":"官网已经打不开"},{"dataversion":"draft1","created":1463529389,"id":"c757223d-4579-4ba0-81c7-4c2f8f59807f","USID":"","name":"成都东大肛肠医院","city":"成都","province":"四川","address":"科华北路1号","type":"","location":{"lng":"104.076566","lat":"30.633515"},"principal":"","shareholder":[],"url":[],"phone":[],"baiduad":{},"news":{},"putian":{},"comments":{},"note":""},{"dataversion":"draft1","created":1463531060,"id":"c837070e-3029-41d9-a0fa-9d04381cf128","USID":"","name":"解放军第324医院","city":"重庆","province":"重庆","address":"建新东路29号(近十八中)","type":"","location":{"lng":"106.540317","lat":"29.574785"},"principal":"","shareholder":[],"url":[],"phone":[],"baiduad":{},"news":{},"putian":{},"comments":{},"note":""},{"dataversion":"draft1","created":1463560610,"updated":1463560610,"id":"c85232ed-c240-4662-835f-6dcea43c2737","USID":"91310104734576527U","name":"上海博爱医院","city":"上海","province":"上海","address":"上海市徐汇区淮海中路1590号","type":"民营医院","location":{"lat":"31.208523","lng":"121.444463"},"principal":"陈帆","shareholder":["范萍","上海博爱健康投资有限公司"],"url":["http://boaihospital.com/"],"phone":["021-64312600"],"baiduad":{},"news":{"evidence":[{"url":"http://tech.qq.com/a/20160501/017681.htm","title":"腾讯科技","snapshot":"http://webcache.googleusercontent.com/search?ion=1&sourceid=chrome-psyapi2&q=cache%3A%2F%2Ftech.qq.com%2Fa%2F20160501%2F017681.htm&oq=cache%3A%2F%2Ftech.qq.com%2Fa%2F20160501%2F017681.htm&rlz=1C5CHFA_enUS659US659&ie=UTF-8&aqs=chrome..69i57j69i58j69i60l3.6201j0j7&bav=on.2,or.r_cp.&bvm=bv.122448493,d.cGc&biw=1438&bih=715&dpr=2&ech=1&psi=1OQ7V-vcN47YjwPHgpSACA.1463542998782.3&ei=1OQ7V-vcN47YjwPHgpSACA&emsg=NCSR&noj=1","dateline":"GithubOpenPowerProgrammer, OpenPower, 2016-05-18T08:35:24.824Z - "},{"url":"http://www.gotoread.com/s/e/?vo=3803&p=43","title":"《瞭望东方周刊》2007年第4期(电子杂志)的报道《“莆田系”败走上海博爱医院》","snapshot":"http://webcache.googleusercontent.com/search?ion=1&sourceid=chrome-psyapi2&q=cache%3A%2F%2Fwww.gotoread.com%2Fs%2Fe%2F%3Fvo%3D3803%26p%3D43&oq=cache%3A%2F%2Fwww.gotoread.com%2Fs%2Fe%2F%3Fvo%3D3803%26p%3D43&rlz=1C5CHFA_enUS659US659&ie=UTF-8&aqs=chrome..69i57j69i58.6072j0j4&bav=on.2,or.r_cp.&bvm=bv.122448493,d.cGc&biw=1438&bih=668&dpr=2&ech=1&psi=QSk8V9G0Jo7kjwPCyp-wBw.1463560515485.3&ei=QSk8V9G0Jo7kjwPCyp-wBw&emsg=NCSR&noj=1","dateline":"GithubOpenPowerProgrammer, OpenPower, 2016-05-18T08:35:24.824Z - "},{"url":"http://www.pkulaw.cn/case/pfnl_1970324843195518.html?match=Exact","title":"徐美宝等诉上海博爱医院有限公司等健康权纠纷案","snapshot":"http://webcache.googleusercontent.com/search?q=cache%3A%2F%2Fwww.pkulaw.cn%2Fcase%2Fpfnl_1970324843195518.html%3Fmatch%3DExact&rlz=1C5CHFA_enUS659US659&oq=cache%3A%2F%2Fwww.pkulaw.cn%2Fcase%2Fpfnl_1970324843195518.html%3Fmatch%3DExact&aqs=chrome..69i57j69i58.2149j0j4&sourceid=chrome&ie=UTF-8","dateline":"GithubOpenPowerProgrammer, OpenPower, 2016-05-18T08:35:24.824Z - "},{"url":"https://imgur.com/88cf0QJ","title":"工信部信息备案查询参考","snapshot":"https://imgur.com/88cf0QJ","dateline":"GithubOpenPowerProgrammer, OpenPower, 2016-05-18T08:35:24.824Z - "}]},"putian":{"confirm":"Yes","evidence":[{"url":"https://zh.wikipedia.org/wiki/%E8%8E%86%E7%94%B0%E7%B3%BB","title":"维基百科","snapshot":"https://zh.wikipedia.org/wiki/%E8%8E%86%E7%94%B0%E7%B3%BB","dateline":"GithubOpenPowerProgrammer, OpenPower, 2016-05-18T08:26:03.324Z - "}]},"comments":{"evidence":[{"url":"http://club.eladies.sina.com.cn/thread-4145079-1-1.html","title":"看看上海博爱医院的黑幕！","snapshot":"http://club.eladies.sina.com.cn/thread-4145079-1-1.html","dateline":"GithubOpenPowerProgrammer, OpenPower, 2016-05-18T08:19:10.995Z - "},{"url":"http://tieba.baidu.com/p/1052554255","title":"上海博爱医院瑞士羊胚胎素注射受骗内幕","snapshot":"http://webcache.googleusercontent.com/search?q=cache%3A%2F%2Ftieba.baidu.com%2Fp%2F1052554255&rlz=1C5CHFA_enUS659US659&oq=cache%3A%2F%2Ftieba.baidu.com%2Fp%2F1052554255&aqs=chrome..69i57j69i58.6492j0j4&sourceid=chrome&ie=UTF-8","dateline":"GithubOpenPowerProgrammer, OpenPower, 2016-05-18T08:19:10.995Z - "},{"url":"http://bbs.voc.com.cn/topic-3222095-1-1.html","title":"看看上海博爱医院的黑幕！ ","snapshot":"http://bbs.voc.com.cn/topic-3222095-1-1.html","dateline":"GithubOpenPowerProgrammer, OpenPower, 2016-05-18T08:19:10.995Z - "}]},"note":""},{"dataversion":"draft1","created":1462870412,"updated":1462870412,"id":"c8ae2579-8875-45ea-af6b-2a96f2639cf3","USID":"","name":"上海市松江区方塔中医医院","city":"上海","province":"上海","address":"上海市松江区中山东路39号","type":"民营医院","location":{"lat":"31.006457","lng":"121.2536917"},"principal":"","shareholder":[""],"url":["http://www.sjftzyyy.com/"],"phone":[""],"baiduad":{},"news":{"evidence":[{"url":"","title":"","snapshot":"","dateline":""}]},"putian":{"confirm":"Yes","evidence":[{"url":"https://zh.wikipedia.org/wiki/%E8%8E%86%E7%94%B0%E7%B3%BB","title":"维基百科","snapshot":"https://zh.wikipedia.org/wiki/%E8%8E%86%E7%94%B0%E7%B3%BB","dateline":"GithubOpenPowerProgrammer, OpenPower, 2016-05-10T08:41:35.696Z - "}]},"comments":{"evidence":[{"url":"","title":"","snapshot":"","dateline":""}]},"note":""},{"dataversion":"draft1","created":1463531060,"id":"c8e62c5b-4796-45d9-ad21-de07d5066422","USID":"","name":"重庆万州美妇产医院","city":"重庆","province":"重庆","address":"白岩路末端中庆花园1号","type":"","location":{"lng":"108.365320","lat":"30.814394"},"principal":"","shareholder":[],"url":[],"phone":[],"baiduad":{},"news":{},"putian":{},"comments":{},"note":""},{"dataversion":"draft1","created":1463531060,"id":"c9da5e51-a8c3-4394-b1a1-4c147013e9dc","USID":"","name":"重庆红楼医院雅安解放军第三十七医院","city":"重庆","province":"重庆","address":null,"type":"","location":"","principal":"","shareholder":[],"url":[],"phone":[],"baiduad":{},"news":{},"putian":{},"comments":{},"note":""},{"dataversion":"draft1","created":1463619753,"updated":1463619753,"id":"cd740660-47d2-4fca-81f1-32858e390448","USID":"","name":"肇庆现代男科医院","city":"肇庆","province":"广东","address":"二塔路中段(肇庆市二人民医院往前200米处)","type":"民营医院","principal":"","shareholder":[""],"url":["http://zqnkyy120.com/"],"phone":["0758-2221120"],"baiduad":{},"news":{"evidence":[{"url":"","title":"","snapshot":"","dateline":""}]},"putian":{},"comments":{"evidence":[{"url":"","title":"","snapshot":"","dateline":""}]},"note":"","location":{"lng":"112.497962","lat":"23.055005"}},{"dataversion":"draft1","created":1463531060,"id":"d25d71b7-38b9-48c4-8a0b-6c739debf669","USID":"","name":"重庆华山中医乳腺病医院","city":"重庆","province":"重庆","address":null,"type":"","location":"","principal":"","shareholder":[],"url":[],"phone":[],"baiduad":{},"news":{},"putian":{},"comments":{},"note":""},{"dataversion":"draft1","created":1463529389,"id":"d2669343-61d4-4fe9-9874-bd6e6b8be39e","USID":"","name":"成都新世纪肛肠医院","city":"成都","province":"四川","address":"一环路北二段1号","type":"","location":{"lng":"104.061107","lat":"30.686222"},"principal":"","shareholder":[],"url":[],"phone":[],"baiduad":{},"news":{},"putian":{},"comments":{},"note":""},{"dataversion":"draft1","created":1463618411,"id":"d3dfa9e1-4db1-4c91-b3f9-96b136c28468","USID":"","name":"汕头妇产医院","city":"汕头","province":"广东","address":"珠池路15号","type":"","location":{"lng":"116.731316","lat":"23.372189"},"principal":"","shareholder":[],"url":[],"phone":[],"baiduad":{},"news":{},"putian":{},"comments":{},"note":""},{"dataversion":"draft1","created":1463576331,"updated":1463576331,"id":"d42612a8-b84d-42a2-b214-b81d8135bf42","USID":"911101133553141136","name":"北京京顺医院","city":"北京","province":"北京","address":"府前西街15号","type":"民营医院","principal":"唐细忠","shareholder":["北京中康时代医院投资集团有限公司"],"url":["http://www.bjjsyy.com/"],"phone":["010-69423999"],"baiduad":{},"news":{"evidence":[{"url":"","title":"","snapshot":"","dateline":""}]},"putian":{"confirm":"Yes","evidence":[{"url":"http://qyxy.baic.gov.cn/gjjbj/gjjQueryCreditAction!openEntInfo.dhtml?entId=20e38b8c33c9804a0133fd9ada304631&credit_ticket=CA4CC7008A6BEB9AD162B6FF7A003FEB&entNo=110106014465381&timeStamp=1463575984217","title":"北京中康时代医院投资集团有限公司","snapshot":"http://i.imgur.com/xtXq6Qi.png","dateline":""},{"url":"http://zonghui.hxyjw.com/show-171671","title":"北京分会 “新形势下的院长智慧” 第二期院长沙龙在北京卫人中医院举行","snapshot":"http://i.imgur.com/kOtpEQo.png","dateline":""}]},"comments":{"evidence":[{"url":"","title":"","snapshot":"","dateline":""}]},"note":"","location":{"lng":"116.642388","lat":"40.130515"}},{"dataversion":"draft1","created":1463557463,"updated":1463557463,"id":"d4c3ce1d-5ce4-425a-a5e5-b87eeac4ef36","USID":"310105000295546","name":"上海九龙男子医院","city":"上海","province":"上海","address":"上海市长宁区中山西路333号","type":"民营医院","location":{"lat":"31.216787","lng":"121.411441"},"principal":"周义明","shareholder":["黄志勇","柯元芳","上海邦泰医院投资管理有限公司"],"url":["http://www.long120.cn/","http://www.shjlnzyy.com/"],"phone":["021-52739067","021-52732699"],"baiduad":{},"news":{"evidence":[{"url":"http://tech.qq.com/a/20160501/017681.htm","title":"腾讯科技","snapshot":"http://webcache.googleusercontent.com/search?ion=1&sourceid=chrome-psyapi2&q=cache%3A%2F%2Ftech.qq.com%2Fa%2F20160501%2F017681.htm&oq=cache%3A%2F%2Ftech.qq.com%2Fa%2F20160501%2F017681.htm&rlz=1C5CHFA_enUS659US659&ie=UTF-8&aqs=chrome..69i57j69i58j69i60l3.6201j0j7&bav=on.2,or.r_cp.&bvm=bv.122448493,d.cGc&biw=1438&bih=715&dpr=2&ech=1&psi=1OQ7V-vcN47YjwPHgpSACA.1463542998782.3&ei=1OQ7V-vcN47YjwPHgpSACA&emsg=NCSR&noj=1","dateline":"GithubOpenPowerProgrammer, OpenPower, 2016-05-18T07:38:44.567Z - "},{"url":"http://sh.sina.com.cn/news/h/2011-12-14/0834203085.html","title":"上海九龙男子医院将尿频男子诊断为前列腺炎","snapshot":"http://webcache.googleusercontent.com/search?q=cache%3A%2F%2Fsh.sina.com.cn%2Fnews%2Fh%2F2011-12-14%2F0834203085.html&rlz=1C5CHFA_enUS659US659&oq=cache%3A%2F%2Fsh.sina.com.cn%2Fnews%2Fh%2F2011-12-14%2F0834203085.html&aqs=chrome..69i57j69i58.2458j0j4&sourceid=chrome&ie=UTF-8","dateline":"GithubOpenPowerProgrammer, OpenPower, 2016-05-18T07:38:44.567Z - "}]},"putian":{"confirm":"Yes","evidence":[{"url":"https://zh.wikipedia.org/wiki/%E8%8E%86%E7%94%B0%E7%B3%BB","title":"维基百科","snapshot":"https://zh.wikipedia.org/wiki/%E8%8E%86%E7%94%B0%E7%B3%BB","dateline":"GithubOpenPowerProgrammer, OpenPower, 2016-05-18T07:36:32.070Z - "}]},"comments":{"evidence":[{"url":"http://www.120x.net/thread-123130-1-1.html","title":"被骗了，上海九龙男子医院，骗子医院","snapshot":"http://webcache.googleusercontent.com/search?q=cache%3A%2F%2Fwww.120x.net%2Fthread-123130-1-1.html&rlz=1C5CHFA_enUS659US659&oq=cache%3A%2F%2Fwww.120x.net%2Fthread-123130-1-1.html&aqs=chrome..69i57j69i58.2545j0j4&sourceid=chrome&ie=UTF-8","dateline":"GithubOpenPowerProgrammer, OpenPower, 2016-05-18T07:44:17.982Z - "},{"url":"http://www.hebeirexian.com/html/2016/0505/9400.html","title":"上海九龙男子医院是黑医院，不要上当","snapshot":"http://webcache.googleusercontent.com/search?q=cache%3A%2F%2Fwww.hebeirexian.com%2Fhtml%2F2016%2F0505%2F9400.html&rlz=1C5CHFA_enUS659US659&oq=cache%3A%2F%2Fwww.hebeirexian.com%2Fhtml%2F2016%2F0505%2F9400.html&aqs=chrome..69i57j69i58.2326j0j4&sourceid=chrome&ie=UTF-8","dateline":"GithubOpenPowerProgrammer, OpenPower, 2016-05-18T07:41:36.601Z - "},{"url":"http://netbarz.com/ngztq/mifz/20160215/5456.html","title":"曝上海九龙男子医院怎么样坑人骗人的！","snapshot":"http://webcache.googleusercontent.com/search?q=cache%3A%2F%2Fnetbarz.com%2Fngztq%2Fmifz%2F20160215%2F5456.html&rlz=1C5CHFA_enUS659US659&oq=cache%3A%2F%2Fnetbarz.com%2Fngztq%2Fmifz%2F20160215%2F5456.html&aqs=chrome..69i57j69i58.2149j0j4&sourceid=chrome&ie=UTF-8","dateline":"GithubOpenPowerProgrammer, OpenPower, 2016-05-18T07:41:36.601Z - "},{"url":"http://2162611500.com/a/yiqianlingyiye/2016/0221/134.html","title":"我在上海九龙男子医院的受骗记（转载）","snapshot":"http://webcache.googleusercontent.com/search?q=cache%3A%2F%2F2162611500.com%2Fa%2Fyiqianlingyiye%2F2016%2F0221%2F134.html&rlz=1C5CHFA_enUS659US659&oq=cache%3A%2F%2F2162611500.com%2Fa%2Fyiqianlingyiye%2F2016%2F0221%2F134.html&aqs=chrome..69i57j69i58.2030j0j4&sourceid=chrome&ie=UTF-8","dateline":"GithubOpenPowerProgrammer, OpenPower, 2016-05-18T07:41:36.601Z - "}]},"note":""},{"dataversion":"draft1","created":1463576983,"id":"d98d7a8d-e782-4ea3-854f-5df6c8d06b02","USID":"","name":"北京德胜门中医院","city":"北京","province":"北京","address":"德胜门外大街200号(德胜门箭楼东北角)","type":"","location":{"lng":"116.380030","lat":"39.952002"},"principal":"","shareholder":[],"url":[],"phone":[],"baiduad":{},"news":{},"putian":{},"comments":{},"note":""},{"dataversion":"draft1","created":1463531060,"id":"dacaa031-33d2-47b9-be9a-abbbeadfd737","USID":"","name":"重庆生殖健康医院","city":"重庆","province":"重庆","address":"渝澳大道读书梁一村9号","type":"","location":{"lng":"106.521235","lat":"29.580122"},"principal":"","shareholder":[],"url":[],"phone":[],"baiduad":{},"news":{},"putian":{},"comments":{},"note":""},{"dataversion":"draft1","created":1463576983,"id":"db13c11d-c298-4f1e-add4-bed623555db9","USID":"","name":"北京华医中西医结合皮肤病医院","city":"北京","province":"北京","address":"西四环北路29号(四季青政府向北侧)","type":"","location":{"lng":"116.274945","lat":"39.955468"},"principal":"","shareholder":[],"url":[],"phone":[],"baiduad":{},"news":{},"putian":{},"comments":{},"note":""},{"dataversion":"draft1","created":1463618411,"id":"dda476ab-2214-4739-a02f-9479e7d041ba","USID":"","name":"广州长泰医院","city":"广州","province":"广东","address":"中山大道中路1003号(东圃客运站旁)","type":"","location":{"lng":"113.414888","lat":"23.119975"},"principal":"","shareholder":[],"url":[],"phone":[],"baiduad":{},"news":{},"putian":{},"comments":{},"note":""},{"dataversion":"draft1","created":1463618411,"id":"de9d5d8b-cd67-4cb3-9a9e-9fb475a17184","USID":"","name":"深圳阳光医院","city":"深圳","province":"广东","address":"宝安南路1048号","type":"","location":{"lng":"114.111963","lat":"22.540299"},"principal":"","shareholder":[],"url":[],"phone":[],"baiduad":{},"news":{},"putian":{},"comments":{},"note":""},{"dataversion":"draft1","created":1463576983,"id":"df0c1837-b892-4be6-bbfc-1c5988cf9a86","USID":"","name":"北京华美美莱整形医院","city":"北京","province":"北京","address":"朝阳门外大街227号美莱大厦","type":"","location":{"lng":"116.441576","lat":"39.924782"},"principal":"","shareholder":[],"url":[],"phone":[],"baiduad":{},"news":{},"putian":{},"comments":{},"note":""},{"dataversion":"draft1","created":1463576983,"id":"df1c0358-c57f-4d6b-92bd-5fa4e86f7010","USID":"","name":"北京阳光丽人妇科医院","city":"北京","province":"北京","address":"古城大街37号","type":"","location":{"lng":"116.186322","lat":"39.911659"},"principal":"","shareholder":[],"url":[],"phone":[],"baiduad":{},"news":{},"putian":{},"comments":{},"note":""},{"dataversion":"draft1","created":1462873236,"updated":1462873236,"id":"e0d333ae-8e1a-43d2-80e0-988a604f9e4e","USID":"","name":"上海中医药大学附属曙光医院浦东肝病专科分院","city":"上海","province":"上海","address":"中国上海市浦东新区华夏东路3018弄46号","type":"民营医院","location":{"lat":"31.201784","lng":"121.712658"},"principal":"","shareholder":[""],"url":[""],"phone":[""],"baiduad":{},"news":{"evidence":[{"url":"","title":"","snapshot":"","dateline":""}]},"putian":{"confirm":"Yes","evidence":[{"url":"https://zh.wikipedia.org/wiki/%E8%8E%86%E7%94%B0%E7%B3%BB","title":"维基百科","snapshot":"https://zh.wikipedia.org/wiki/%E8%8E%86%E7%94%B0%E7%B3%BB","dateline":"GithubOpenPowerProgrammer, OpenPower, 2016-05-10T09:39:24.827Z - "}]},"comments":{"evidence":[{"url":"","title":"","snapshot":"","dateline":""}]},"note":""},{"dataversion":"draft1","created":1463529389,"id":"e279ca75-dc4a-4576-9f20-ace114589753","USID":"","name":"成都龙都医院","city":"成都","province":"四川","address":"龙都南路203号(近龙泉驿区公安局)","type":"","location":{"lng":"104.266956","lat":"30.569169"},"principal":"","shareholder":[],"url":[],"phone":[],"baiduad":{},"news":{},"putian":{},"comments":{},"note":""},{"dataversion":"draft1","created":1463618411,"id":"e327c53d-ec8b-4dd0-a255-f67e0faa3eee","USID":"","name":"惠阳女子医院","city":"惠州","province":"广东","address":"人民六路与演达路交叉口(琼苑大酒店右50米)","type":"","location":{"lng":"114.468643","lat":"22.775112"},"principal":"","shareholder":[],"url":[],"phone":[],"baiduad":{},"news":{},"putian":{},"comments":{},"note":""},{"dataversion":"draft1","created":1463531060,"id":"e548d409-2534-4184-9d3a-7ba8a43a937c","USID":"","name":"重庆华美美莱整形医院","city":"重庆","province":"重庆","address":"丁香路6号附1号","type":"","location":{"lng":"106.549546","lat":"29.602327"},"principal":"","shareholder":[],"url":[],"phone":[],"baiduad":{},"news":{},"putian":{},"comments":{},"note":""},{"dataversion":"draft1","created":1463619705,"updated":1463619705,"id":"e5e04698-2a6a-4a49-a14e-f80f9c4cad8e","USID":"","name":"东莞玛丽亚妇产医院","city":"东莞","province":"广东","address":"莞太路(广彩城酒店旁)","type":"民营医院","principal":"","shareholder":[""],"url":["http://www.dgmaria.cn/"],"phone":["0769-22993333"],"baiduad":{},"news":{"evidence":[{"url":"","title":"","snapshot":"","dateline":""}]},"putian":{},"comments":{"evidence":[{"url":"","title":"","snapshot":"","dateline":""}]},"note":"","location":{"lng":"113.729291","lat":"22.999442"}},{"dataversion":"draft1","created":1463531060,"id":"e5f730a0-85fb-4e8c-8a9b-a2edb8b55dad","USID":"","name":"万州阳光眼科医院","city":"重庆","province":"重庆","address":"太白路136号","type":"","location":{"lng":"108.379957","lat":"30.805496"},"principal":"","shareholder":[],"url":[],"phone":[],"baiduad":{},"news":{},"putian":{},"comments":{},"note":""},{"dataversion":"draft1","created":1463529389,"id":"e6fa2779-d069-403d-80dd-124bab8cf8d1","USID":"","name":"成都华美美莱整形医院","city":"成都","province":"四川","address":null,"type":"","location":"","principal":"","shareholder":[],"url":[],"phone":[],"baiduad":{},"news":{},"putian":{},"comments":{},"note":""},{"dataversion":"draft1","created":1463542567,"updated":1463542567,"id":"e71244bd-937f-48e0-a3f2-1865e50442e1","USID":"","name":"解放军411医院","city":"上海","province":"上海","address":"中国上海市虹口区东江湾路15号","type":"民营医院","location":{"lat":"31.26528","lng":"121.480644"},"principal":"","shareholder":[""],"url":["http://www.sh411wgk.com"],"phone":["400-0789411"],"baiduad":{},"news":{"evidence":[{"url":"http://tech.qq.com/a/20160501/017681.htm","title":"腾讯科技","snapshot":"http://webcache.googleusercontent.com/search?ion=1&sourceid=chrome-psyapi2&q=cache%3A%2F%2Ftech.qq.com%2Fa%2F20160501%2F017681.htm&oq=cache&rlz=1C5CHFA_enUS659US659&ie=UTF-8&aqs=chrome.0.69i59j69i57j69i59l2j0l2.2368j0j7&bav=on.2,or.r_cp.&biw=1438&bih=715&dpr=2&ech=1&psi=t-E7V5vgI8LUjwPf-7_4CA.1463542201608.3&ei=t-E7V5vgI8LUjwPf-7_4CA&emsg=NCSR&noj=1","dateline":"GithubOpenPowerProgrammer, OpenPower, 2016-05-18T03:30:17.318Z - "}]},"putian":{"confirm":"Yes","evidence":[{"url":"https://zh.wikipedia.org/wiki/%E8%8E%86%E7%94%B0%E7%B3%BB","title":"维基百科","snapshot":"https://zh.wikipedia.org/wiki/%E8%8E%86%E7%94%B0%E7%B3%BB","dateline":"GithubOpenPowerProgrammer, OpenPower, 2016-05-18T03:29:51.379Z - "}]},"comments":{"evidence":[{"url":"http://www.dianping.com/shop/2372878","title":"大众点评","snapshot":"http://www.dianping.com/shop/2372878","dateline":"GithubOpenPowerProgrammer, OpenPower, 2016-05-18T03:30:59.445Z - "},{"url":"http://bbs.tianya.cn/post-837-166049-1.shtml","title":"天涯社区","snapshot":"http://webcache.googleusercontent.com/search?q=cache%3A%2F%2Fbbs.tianya.cn%2Fpost-837-166049-1.shtml&rlz=1C5CHFA_enUS659US659&oq=cache%3A%2F%2Fbbs.tianya.cn%2Fpost-837-166049-1.shtml&aqs=chrome..69i57j69i58.2794j0j4&sourceid=chrome&ie=UTF-8","dateline":"GithubOpenPowerProgrammer, OpenPower, 2016-05-18T03:30:59.445Z - "},{"url":"http://blog.sina.com.cn/s/blog_15579c9230102vv2w.html","title":"新浪博客","snapshot":"http://webcache.googleusercontent.com/search?q=cache%3A%2F%2Fblog.sina.com.cn%2Fs%2Fblog_15579c9230102vv2w.html&rlz=1C5CHFA_enUS659US659&oq=cache%3A%2F%2Fblog.sina.com.cn%2Fs%2Fblog_15579c9230102vv2w.html&aqs=chrome..69i57j69i58.2496j0j4&sourceid=chrome&ie=UTF-8","dateline":"GithubOpenPowerProgrammer, OpenPower, 2016-05-18T03:30:59.445Z - "},{"url":"http://www.yiliao8.com/a/700.html","title":"医疗吧","snapshot":"http://webcache.googleusercontent.com/search?q=cache%3A%2F%2Fwww.yiliao8.com%2Fa%2F700.html&rlz=1C5CHFA_enUS659US659&oq=cache%3A%2F%2Fwww.yiliao8.com%2Fa%2F700.html&aqs=chrome..69i57j69i58.2540j0j4&sourceid=chrome&ie=UTF-8","dateline":"GithubOpenPowerProgrammer, OpenPower, 2016-05-18T03:30:59.445Z - "},{"url":"http://www.scsoho.com/news/shehui/2016-5-9/38915.html","title":"上海解放军411医院骗子乱收费 收费是人家的几倍","snapshot":"http://webcache.googleusercontent.com/search?q=cache%3A%2F%2Fwww.scsoho.com%2Fnews%2Fshehui%2F2016-5-9%2F38915.html&rlz=1C5CHFA_enUS659US659&oq=cache%3A%2F%2Fwww.scsoho.com%2Fnews%2Fshehui%2F2016-5-9%2F38915.html&aqs=chrome..69i57j69i58.2854j0j4&sourceid=chrome&ie=UTF-8","dateline":"GithubOpenPowerProgrammer, OpenPower, 2016-05-18T03:30:59.445Z - "}]},"note":""},{"dataversion":"draft1","created":1463618411,"id":"e814740b-e5ed-471b-bd1d-664181ff1918","USID":"","name":"中山市国丹中医院","city":"中山","province":"广东","address":"沙边路3号","type":"","location":{"lng":"113.458175","lat":"22.552989"},"principal":"","shareholder":[],"url":[],"phone":[],"baiduad":{},"news":{},"putian":{},"comments":{},"note":""},{"dataversion":"draft1","created":1463529389,"id":"e966ee54-2958-49e5-a6d1-ea605b169070","USID":"","name":"成都玛利亚妇产医院","city":"成都","province":"四川","address":"一环路北一段125号","type":"","location":{"lng":"104.050639","lat":"30.683879"},"principal":"","shareholder":[],"url":[],"phone":[],"baiduad":{},"news":{},"putian":{},"comments":{},"note":""},{"dataversion":"draft1","created":1463550497,"updated":1463550497,"id":"ea802b91-6a7e-425c-a2b0-cbb14fcb8a55","USID":"91310109737485639H","name":"上海长江医院","city":"上海","province":"上海","address":"上海市虹口区周家嘴路515-535号","type":"民营医院","location":{"lat":"31.2560845","lng":"121.4981643"},"principal":"林梅兰","shareholder":["上海虹口长江医疗产业投资管理（集团）有限公司","林梅兰","林瑞兴","陈娟"],"url":["http://www.cjhospital.com/yiyuanjianjie/"],"phone":["021-65022556"],"baiduad":{},"news":{"evidence":[{"url":"http://tech.qq.com/a/20160501/017681.htm","title":"腾讯科技","snapshot":"http://webcache.googleusercontent.com/search?ion=1&sourceid=chrome-psyapi2&q=cache%3A%2F%2Ftech.qq.com%2Fa%2F20160501%2F017681.htm&oq=cache%3A%2F%2Ftech.qq.com%2Fa%2F20160501%2F017681.htm&rlz=1C5CHFA_enUS659US659&ie=UTF-8&aqs=chrome..69i57j69i58j69i60l3.6201j0j7&bav=on.2,or.r_cp.&bvm=bv.122448493,d.cGc&biw=1438&bih=715&dpr=2&ech=1&psi=1OQ7V-vcN47YjwPHgpSACA.1463542998782.3&ei=1OQ7V-vcN47YjwPHgpSACA&emsg=NCSR&noj=1","dateline":"GithubOpenPowerProgrammer, OpenPower, 2016-05-18T05:42:51.582Z - "},{"url":"http://www.southcn.com/news/community/shzt/consumer/medical/200603020437.htm","title":"南方周未 “送子神话”的背后——上海长江医院被全面调查","snapshot":"http://webcache.googleusercontent.com/search?q=cache%3A%2F%2Fwww.southcn.com%2Fnews%2Fcommunity%2Fshzt%2Fconsumer%2Fmedical%2F200603020437.htm&rlz=1C5CHFA_enUS659US659&oq=cache%3A%2F%2Fwww.southcn.com%2Fnews%2Fcommunity%2Fshzt%2Fconsumer%2Fmedical%2F200603020437.htm&aqs=chrome..69i57j69i58.2912j0j4&sourceid=chrome&ie=UTF-8","dateline":"GithubOpenPowerProgrammer, OpenPower, 2016-05-18T05:42:51.582Z - "},{"url":"http://www.bullettou.com/news/shehui/2015-07-28/8827.html","title":"北都网","snapshot":"http://webcache.googleusercontent.com/search?q=cache%3A%2F%2Fwww.bullettou.com%2Fnews%2Fshehui%2F2015-07-28%2F8827.html&rlz=1C5CHFA_enUS659US659&oq=cache%3A%2F%2Fwww.bullettou.com%2Fnews%2Fshehui%2F2015-07-28%2F8827.html&aqs=chrome..69i57j69i58.3470j0j4&sourceid=chrome&ie=UTF-8","dateline":"GithubOpenPowerProgrammer, OpenPower, 2016-05-18T05:42:51.582Z - "},{"url":"http://news.sina.com.cn/c/2006-05-29/09119056507s.shtml","title":"\"骗子医院\"乔迁继续营业 长江医院还能走多远","snapshot":"http://webcache.googleusercontent.com/search?q=cache%3A%2F%2Fnews.sina.com.cn%2Fc%2F2006-05-29%2F09119056507s.shtml&rlz=1C5CHFA_enUS659US659&oq=cache%3A%2F%2Fnews.sina.com.cn%2Fc%2F2006-05-29%2F09119056507s.shtml&aqs=chrome..69i57j69i58.2182j0j4&sourceid=chrome&ie=UTF-8","dateline":"GithubOpenPowerProgrammer, OpenPower, 2016-05-18T05:42:51.582Z - "},{"url":"http://forum.xitek.net/thread-331045-1-1-1.html","title":"令人发指也不为过，上海长江医院坑人事件！看28日CCTV-2感言","snapshot":"http://forum.xitek.net/thread-331045-1-1-1.html","dateline":"GithubOpenPowerProgrammer, OpenPower, 2016-05-18T05:42:51.582Z - "}]},"putian":{"confirm":"Yes","evidence":[{"url":"https://zh.wikipedia.org/wiki/%E8%8E%86%E7%94%B0%E7%B3%BB","title":"维基百科","snapshot":"https://zh.wikipedia.org/wiki/%E8%8E%86%E7%94%B0%E7%B3%BB","dateline":"GithubOpenPowerProgrammer, OpenPower, 2016-05-18T05:41:39.361Z - "}]},"comments":{"evidence":[{"url":"http://www.yiliao8.com/a/400.html","title":"上海长江医院发布假新闻以及收费不明乱收费问题","snapshot":"http://webcache.googleusercontent.com/search?q=cache%3A%2F%2Fwww.yiliao8.com%2Fa%2F400.html&rlz=1C5CHFA_enUS659US659&oq=cache%3A%2F%2Fwww.yiliao8.com%2Fa%2F400.html&aqs=chrome..69i57j69i58.2062j0j4&sourceid=chrome&ie=UTF-8","dateline":"GithubOpenPowerProgrammer, OpenPower, 2016-05-18T05:46:31.474Z - "},{"url":"http://www.19lou.com/forum-289-thread-1161375781535263-1-1.html","title":"上海长江医院就是骗子医院","snapshot":"http://webcache.googleusercontent.com/search?q=cache%3A%2F%2Fwww.19lou.com%2Fforum-289-thread-1161375781535263-1-1.html&rlz=1C5CHFA_enUS659US659&oq=cache%3A%2F%2Fwww.19lou.com%2Fforum-289-thread-1161375781535263-1-1.html&aqs=chrome..69i57j69i58.2135j0j4&sourceid=chrome&ie=UTF-8","dateline":"GithubOpenPowerProgrammer, OpenPower, 2016-05-18T05:46:31.474Z - "},{"url":"http://www.djlhc111.com/xinwen/shishi/29093.html","title":"上海天伦医院黑心骗子医院，虹口区卫生局腐败透顶，黄启明黑心骗","snapshot":"http://www.djlhc111.com/xinwen/shishi/29093.html","dateline":"GithubOpenPowerProgrammer, OpenPower, 2016-05-18T05:46:31.474Z - "}]},"note":"全名 上海虹口长江医院有限公司"},{"dataversion":"draft1","created":1463618411,"id":"eb8d5ab3-ed8f-4692-aff1-16c6a85fdcf2","USID":"","name":"深圳和美妇儿科医院","city":"深圳","province":"广东","address":"深南大道12018号","type":"","location":{"lng":"113.922113","lat":"22.541057"},"principal":"","shareholder":[],"url":[],"phone":[],"baiduad":{},"news":{},"putian":{},"comments":{},"note":""},{"dataversion":"draft1","created":1463618411,"id":"eb967c92-3e5e-43a1-8461-d0b562f02c3e","USID":"","name":"深圳同仁妇科医院","city":"深圳","province":"广东","address":"宝安大道3186号","type":"","location":{"lng":"113.871841","lat":"22.575374"},"principal":"","shareholder":[],"url":[],"phone":[],"baiduad":{},"news":{},"putian":{},"comments":{},"note":""},{"dataversion":"draft1","created":1463618411,"id":"ed91bae6-ca0c-466f-89a8-8ab6a19d17b7","USID":"","name":"广州圣亚泌尿外科医院","city":"广州","province":"广东","address":"广州大道中601号","type":"","location":{"lng":"113.314586","lat":"23.137713"},"principal":"","shareholder":[],"url":[],"phone":[],"baiduad":{},"news":{},"putian":{},"comments":{},"note":""},{"dataversion":"draft1","created":1462872494,"updated":1462872494,"id":"ee0a71a1-20ef-4c6f-975d-d31e91486441","USID":"","name":"众仁曙光医疗保健中心","city":"上海","province":"上海","address":"思南路西100米","type":"民营医院","principal":"","shareholder":[""],"url":[""],"phone":[""],"baiduad":{},"news":{"evidence":[{"url":"","title":"","snapshot":"","dateline":""}]},"putian":{"confirm":"Yes","evidence":[{"url":"http://www.mnw.cn/news/pt/1172228.html","title":"莆田系林氏家族背景资料发家史 林志忠林志程博爱医疗名单","snapshot":"http://webcache.googleusercontent.com/search?q=cache%3A%2F%2Fwww.mnw.cn%2Fnews%2Fpt%2F1172228.html&rlz=1C5CHFA_enUS659US659&oq=cache%3A%2F%2Fwww.mnw.cn%2Fnews%2Fpt%2F1172228.html&aqs=chrome..69i57j69i58.2869j0j4&sourceid=chrome&ie=UTF-8","dateline":"GithubOpenPowerProgrammer, OpenPower, 2016-05-10T09:23:09.567Z - "},{"url":"https://zh.wikipedia.org/wiki/%E8%8E%86%E7%94%B0%E7%B3%BB","title":"维基百科","snapshot":"https://zh.wikipedia.org/wiki/%E8%8E%86%E7%94%B0%E7%B3%BB","dateline":"GithubOpenPowerProgrammer, OpenPower, 2016-05-10T09:23:09.567Z - "}]},"comments":{"evidence":[{"url":"","title":"","snapshot":"","dateline":""}]},"note":"","location":{"lng":"121.468150","lat":"31.212337"}},{"dataversion":"draft1","created":1463618411,"id":"ee0cf09d-4788-4c2f-9765-a8c7299169db","USID":"","name":"番禺东方俪人医院","city":"广州","province":"广东","address":"繁华路57号微禾商业广场6层","type":"","location":{"lng":"113.362951","lat":"22.941784"},"principal":"","shareholder":[],"url":[],"phone":[],"baiduad":{},"news":{},"putian":{},"comments":{},"note":""},{"dataversion":"draft1","created":1463043652,"updated":1463043652,"id":"ef6556ac-74a7-4bfb-b2e8-97122146ce8a","USID":"","name":"上海圣爱医院","city":"上海","province":"上海","address":"中国上海市嘉定区群裕路60号","type":"民营医院","location":{"lat":"31.3720062","lng":"121.2517713"},"principal":"","shareholder":[""],"url":["http://www.shsayy.com/"],"phone":["021-69521000"],"baiduad":{},"news":{"evidence":[{"url":"http://tech.qq.com/a/20160501/017681.htm","title":"腾讯科技","snapshot":"http://webcache.googleusercontent.com/search?q=cache%3A%2F%2Ftech.qq.com%2Fa%2F20160501%2F017681.htm&rlz=1C5CHFA_enUS659US659&oq=cache%3A%2F%2Ftech.qq.com%2Fa%2F20160501%2F017681.htm&aqs=chrome..69i57j69i58j69i60l3.2910j0j4&sourceid=chrome&ie=UTF-8","dateline":"GithubOpenPowerProgrammer, OpenPower, 2016-05-12T09:00:49.919Z - "}]},"putian":{"confirm":"Yes","evidence":[{"url":"https://zh.wikipedia.org/zh/%E8%8E%86%E7%94%B0%E7%B3%BB","title":"维基百科","snapshot":"https://zh.wikipedia.org/zh/%E8%8E%86%E7%94%B0%E7%B3%BB","dateline":"GithubOpenPowerProgrammer, OpenPower, 2016-05-12T08:55:18.525Z - "}]},"comments":{"evidence":[{"url":"","title":"","snapshot":"","dateline":""}]},"note":""},{"dataversion":"draft1","created":1463618411,"id":"f30bd710-8912-4008-a2a8-02e08ba0d957","USID":"","name":"深圳雪象医院","city":"深圳","province":"广东","address":"雪岗路1136号","type":"","location":{"lng":"114.078581","lat":"22.651396"},"principal":"","shareholder":[],"url":[],"phone":[],"baiduad":{},"news":{},"putian":{},"comments":{},"note":""},{"dataversion":"draft1","created":1463618411,"id":"f30da487-f398-4ec6-baaf-e9a9d94dc403","USID":"","name":"广东福康医院","city":"广州","province":"广东","address":"东晓南侨港路万翠东街2号(东晓南地铁站口C2出口)(东晓南地铁站口C2出口)","type":"","location":{"lng":"113.291532","lat":"23.070438"},"principal":"","shareholder":[],"url":[],"phone":[],"baiduad":{},"news":{},"putian":{},"comments":{},"note":""},{"dataversion":"draft1","created":1463618411,"id":"f33b7f56-ece0-4544-9f2c-78c80270aca3","USID":"","name":"深圳凤凰医院","city":"深圳","province":"广东","address":"凤凰山大道","type":"","location":{"lng":"113.833887","lat":"22.691368"},"principal":"","shareholder":[],"url":[],"phone":[],"baiduad":{},"news":{},"putian":{},"comments":{},"note":""},{"dataversion":"draft1","created":1463576983,"id":"f3dc4990-d7e0-4cce-9073-94f1dcfd60f9","USID":"","name":"北京慈康医院","city":"北京","province":"北京","address":"北四环中路志新桥西北角志新村1号楼","type":"","location":{"lng":"116.366813","lat":"39.988760"},"principal":"","shareholder":[],"url":[],"phone":[],"baiduad":{},"news":{},"putian":{},"comments":{},"note":""},{"dataversion":"draft1","created":1463576983,"id":"f4285b24-0821-46af-af23-4a7fcc805d70","USID":"","name":"北京京城皮肤病医院","city":"北京","province":"北京","address":"北沙滩桥北双泉堡甲4号","type":"","location":{"lng":"116.36546","lat":"40.008575"},"principal":"","shareholder":[],"url":[],"phone":[],"baiduad":{},"news":{},"putian":{},"comments":{},"note":""},{"dataversion":"draft1","created":1463618411,"id":"f7c8eeb1-2804-4b76-ad17-45198b8893c8","USID":"","name":"惠州仁德妇科医院","city":"惠州","province":"广东","address":"麦地路20号(天悦大酒店往汽车总站方向200米)","type":"","location":{"lng":"114.402995","lat":"23.074917"},"principal":"","shareholder":[],"url":[],"phone":[],"baiduad":{},"news":{},"putian":{},"comments":{},"note":""},{"dataversion":"draft1","created":1463618411,"id":"fbb8b780-45d3-49f7-8b9e-1e3565db7f71","USID":"","name":"惠州东江泌尿专科医院","city":"惠州","province":"广东","address":"麦科特大道40号","type":"","location":{"lng":"114.411461","lat":"23.075236"},"principal":"","shareholder":[],"url":[],"phone":[],"baiduad":{},"news":{},"putian":{},"comments":{},"note":""},{"dataversion":"draft1","created":1463531060,"id":"fc5a677c-d072-45d0-bee8-714eb74f3566","USID":"","name":"重庆万州博生医院","city":"重庆","province":"重庆","address":"白岩路末端中庆花园1号","type":"","location":{"lng":"108.365329","lat":"30.814400"},"principal":"","shareholder":[],"url":[],"phone":[],"baiduad":{},"news":{},"putian":{},"comments":{},"note":""},{"dataversion":"draft1","created":1463576983,"id":"ff329d12-0bc1-4f29-ba9f-c6bf39330a43","USID":"","name":"北京市慧慈医院","city":"北京","province":"北京","address":"新开街7号","type":"","location":{"lng":"117.122257","lat":"40.142200"},"principal":"","shareholder":[],"url":[],"phone":[],"baiduad":{},"news":{},"putian":{},"comments":{},"note":""},{"dataversion":"draft1","created":1463618411,"id":"ff718ee2-6aa9-4d23-81d5-cbfa88393130","USID":"","name":"深圳健丰医院","city":"深圳","province":"广东","address":"高思特工业区(坪山长途汽车站旁)","type":"","location":{"lng":"114.330620","lat":"22.700744"},"principal":"","shareholder":[],"url":[],"phone":[],"baiduad":{},"news":{},"putian":{},"comments":{},"note":""}]}